well_id,sno,state,district,block,location,latitude,longitude,year,ph,ec,co3,hco3,cl,so4,no3,po4,th,ca,mg,na,k,f,tds,sio2
W254029084355301,1,Himachal Pradesh,Solan,Nallagarh,JAGATPUR,31.1594,76.6785,2019,8.44,299.0,43.0,87.0,21.0,0.0,2.7,0.0,84.0,17.0,10.0,39.0,2.4,0.2,,11.0
W251908084361501,2,Himachal Pradesh,Solan,Nallagarh,BARUNA,31.154,76.6384,2019,8.4,270.0,43.0,87.0,14.0,0.0,10.0,0.0,116.0,10.0,18.0,23.0,1.0,0.12,,12.0
W310955076364001,3,Himachal Pradesh,Solan,Nallagarh,BHATOLI,31.1651,76.6082,2019,8.4,318.0,43.0,87.0,21.0,0.0,13.0,0.0,116.0,10.0,18.0,28.0,2.5,0.15,,13.0
W310143076392701,4,Himachal Pradesh,Solan,Nallagarh,MAGANPURA,31.02,76.65,2019,8.12,715.0,0.0,131.0,134.0,21.0,52.0,0.0,200.0,38.0,26.0,68.0,4.0,0.14,,16.0
W321645075471501,5,Himachal Pradesh,Kangra,Nurpur,PANJPIR,32.28,75.7914,2019,8.12,277.0,0.0,171.0,14.0,0.0,10.0,0.0,110.0,28.0,9.7,26.0,2.01,0.22,,30.0
W321645075503001,6,Himachal Pradesh,Kangra,Nurpur,JASSUR,32.2796,75.8408,2019,8.45,330.0,24.0,122.0,21.0,0.0,21.0,0.0,140.0,24.0,19.0,23.0,1.99,0.16,,14.0
W321300075401501,7,Himachal Pradesh,Kangra,Indora,MOHTLI,32.2157,75.6687,2019,8.18,377.0,0.0,146.0,42.0,0.0,23.0,0.0,120.0,32.0,9.7,35.0,4.9,0.15,,17.0
W320045076140001,8,Himachal Pradesh,Kangra,Kangra,BANDH,32.0042,76.2299,2019,8.45,310.0,12.0,159.0,28.0,0.0,7.2,0.0,110.0,32.0,7.3,24.0,0.0,0.3,,23.0
W320630076162001,9,Himachal Pradesh,Kangra,Kangra,KANGRA,32.1067,76.2752,2019,8.47,275.0,12.0,110.0,21.0,0.0,20.0,0.0,110.0,28.0,0.0,22.0,2.2,0.15,,23.0
W320200076150001,10,Himachal Pradesh,Kangra,Kangra,TAKIPUR,32.0503,76.2538,2019,8.25,307.0,0.0,134.0,21.0,0.0,23.0,0.0,130.0,28.0,15.0,16.0,0.0,0.12,,10.0
W320315076372501,11,Himachal Pradesh,Kangra,Baijnath,PAPROLA,32.0536,76.6338,2019,7.72,200.0,0.0,85.0,21.0,0.0,15.0,0.0,70.0,24.0,0.0,20.0,3.9,0.32,,6.0
W314745076200001,12,Himachal Pradesh,Kangra,Dehra gopipur,BHAROLI,31.7921,76.3342,2019,8.32,630.0,12.0,159.0,83.0,10.0,32.0,0.0,180.0,36.0,22.0,57.0,1.9,0.15,,9.8
W321605076010001,13,Himachal Pradesh,Kangra,Nurpur,MAO,32.2603,76.0106,2019,8.4,312.0,12.0,171.0,21.0,0.0,1.6,0.0,130.0,40.0,7.3,28.0,1.0,0.17,,14.0
W320730075413001,14,Himachal Pradesh,Kangra,Indora,ANDAURA,32.1369,75.6894,2019,8.5,400.0,48.0,171.0,21.0,5.0,7.7,0.0,140.0,28.0,17.0,55.0,2.3,0.25,,19.0
W320330075431501,15,Himachal Pradesh,Kangra,Indora,BAROTA,32.0388,75.7192,2019,8.32,415.0,12.0,171.0,28.0,0.0,36.0,0.0,150.0,32.0,17.0,26.0,19.0,0.1,,15.0
W314710076175001,16,Himachal Pradesh,Kangra,Rakkar,HARDOGRI,31.7839,76.2956,2019,8.3,385.0,24.0,159.0,35.0,0.0,3.3,0.0,150.0,44.0,9.7,32.0,1.5,0.15,,15.0
W320624076243902,17,Himachal Pradesh,Kangra,Kangra,CHAKBAN AMBARI,32.1068,76.4111,2019,8.0,150.0,0.0,61.0,20.0,0.0,7.3,0.0,50.0,16.0,0.0,16.0,0.0,0.1,,13.0
W320943075592701,18,Himachal Pradesh,Kangra,Indora,DARKATI,32.1622,75.9909,2019,8.35,345.0,12.0,146.0,27.0,0.0,24.0,0.0,120.0,24.0,15.0,28.0,14.0,0.12,,15.0
W320536076155201,19,Himachal Pradesh,Kangra,Kangra,OLD KANGRA,32.0934,76.2645,2019,8.47,362.0,48.0,110.0,13.0,12.0,16.0,0.0,160.0,40.0,15.0,25.0,1.5,0.14,,29.0
W315800076321701,20,Himachal Pradesh,Kangra,Kang-Palmpur,Ladhi,31.9667,76.5382,2019,8.2,255.0,0.0,134.0,21.0,20.0,1.0,0.0,120.0,28.0,19.0,17.0,8.9,0.14,,3.9
W322125075514101,21,Himachal Pradesh,KANGRA,Nurpur,PARNALLA,32.3572,75.8614,2019,8.32,200.0,24.0,85.0,6.7,0.0,1.7000000000000002,0.0,100.0,24.0,9.7,12.0,0.0,0.22,,12.0
W321715075521501,22,Himachal Pradesh,KANGRA,Nurpur,BOD,32.2869,75.8697,2019,8.6,795.0,60.0,232.0,57.0,0.0,58.0,0.0,290.0,56.0,36.0,48.0,20.0,0.3,,22.0
W321016075414301,23,Himachal Pradesh,Kangra,Indaura,Changara,32.1713,75.6954,2019,8.4,255.0,24.0,110.0,14.0,0.0,4.1,0.0,110.0,12.0,19.0,21.0,1.3,0.18,,22.0
W321514075531101,24,Himachal Pradesh,KANGRA,Jawali,THALI,32.254,75.8865,2019,7.9,195.0,0.0,146.0,6.7,0.0,5.2,0.0,100.0,24.0,9.7,17.0,0.0,0.15,,22.0
W321045075565701,25,Himachal Pradesh,KANGRA,Jawali,BHARMAR,32.1627,75.9638,2019,8.38,315.0,24.0,146.0,11.0,0.0,10.0,0.0,130.0,44.0,0.0,18.0,2.6,0.15,,15.0
W311240076284501,26,Himachal Pradesh,KANGRA,Indora,KOTLA,32.2363,76.0483,2019,8.48,300.0,24.0,159.0,13.0,0.0,9.1,0.0,140.0,12.0,27.0,26.0,2.0,0.14,,23.0
W315838075541801,27,Himachal Pradesh,Kangra,Indaura,Jagir,31.9729,75.903,2019,8.4,480.0,24.0,134.0,42.0,24.0,22.0,0.0,180.0,24.0,29.0,30.0,8.0,0.16,,6.7
W313930076564501,28,Himachal Pradesh,MANDI,Mandi,GUTKAR,31.66,76.95,2019,8.18,244.0,0.0,102.0,28.0,0.0,14.0,0.0,84.0,29.0,0.0,18.0,6.0,0.48,,14.0
W313445076544501,29,Himachal Pradesh,MANDI,Sundernagar,KANED,31.5789,76.9134,2019,8.15,522.0,0.0,189.0,50.0,29.0,11.0,0.0,158.0,29.0,20.0,37.0,14.0,0.17,,19.0
W204733081030501,30,Himachal Pradesh,MANDI,Mandi,LOHARA,31.5886,76.9451,2019,8.04,1052.0,0.0,102.0,156.0,167.0,72.0,0.0,347.0,76.0,38.0,75.0,6.8,0.1,,22.0
W313330076534501,31,Himachal Pradesh,MANDI,Sundernagar,JARL,31.5515,76.8959,2019,8.45,396.0,43.0,116.0,35.0,0.0,8.7,0.0,168.0,42.0,15.0,21.0,2.3,0.14,,14.0
W213251076155901,32,Himachal Pradesh,MANDI,Aut,JHIRI,31.8347,77.1716,2019,8.09,367.0,0.0,116.0,35.0,0.0,42.0,0.0,147.0,38.0,13.0,13.0,3.9,0.17,,21.0
W313353076552601,33,Himachal Pradesh,MANDI,Bahl,Dinak,31.5648,76.9241,2019,8.42,445.0,43.0,102.0,43.0,0.0,22.0,0.0,179.0,29.0,26.0,25.0,1.7000000000000002,0.13,,11.0
W314131076252701,34,Himachal Pradesh,HAMIRPUR,Nadaun,KANGU,31.6864,76.4244,2019,8.04,361.0,0.0,218.0,28.0,0.0,1.7000000000000002,0.0,189.0,55.0,13.0,11.0,1.6,0.18,,14.0
W313652076282901,35,Himachal Pradesh,HAMIRPUR,Nadaun,GALORE,31.6146,76.4747,2019,8.46,350.0,57.0,87.0,21.0,0.0,6.9,0.2,168.0,51.0,10.0,10.0,6.1,0.13,,14.0
W315430077074501,36,Himachal Pradesh,Kullu,Kullu,GADAURI,31.6573,77.1312,2019,8.18,378.0,0.0,102.0,35.0,0.0,61.0,0.0,158.0,38.0,15.0,11.0,5.0,0.07,,16.0
W315750077070001,37,Himachal Pradesh,kullu,Kullu,kullu,31.9648,77.1153,2019,8.53,470.0,29.0,175.0,35.0,0.0,48.0,0.0,177.0,63.0,8.4,36.0,12.0,0.12,,11.0
W321400076083901,38,Himachal Pradesh,CHAMBA,Bhattiyat,UPPER THULEL,32.2335,76.1443,2019,8.36,215.0,14.0,87.0,14.0,0.0,2.8,0.0,105.0,21.0,13.0,7.0,0.0,0.1,,15.0
W282315076135001,39,Himachal Pradesh,SIRMOUR,Kala Amb,Kheri,30.5261,77.1944,2019,8.37,320.0,29.0,102.0,21.0,0.0,17.0,0.0,137.0,51.0,0.0,13.0,4.2,0.22,,15.0
W302844077323901,40,Himachal Pradesh,SIRMOUR,Paonta Valley,Miserwala,30.4791,77.5444,2019,8.55,492.0,71.0,131.0,28.0,0.0,10.0,0.0,242.0,63.0,20.0,13.0,2.4,0.1,,14.0
W303218077150801,41,Himachal Pradesh,SIRMOUR,Paonta Valley,Sainwala II,30.5385,77.2524,2019,8.36,481.0,29.0,102.0,43.0,0.0,51.0,0.0,189.0,21.0,33.0,24.0,1.0,0.18,,19.0
W302830077330001,42,Himachal Pradesh,SIRMOUR,Paonta sahib,KIYARDA,30.473,77.5489,2019,8.0,142.0,0.0,103.0,14.0,0.0,5.7,0.0,63.0,13.0,7.7,18.0,2.5,0.07,,10.0
W130730078073001,43,Himachal Pradesh,SIRMOUR,Paonta sahib,KOLAR,30.4977,77.4409,2019,7.93,413.0,0.0,145.0,21.0,43.0,27.0,0.0,179.0,46.0,15.0,13.0,2.6,0.08,,15.0
W254545085051501,44,Himachal Pradesh,SIRMOUR,Paonta sahib,NAYAGAON,30.4977,77.4409,2019,8.22,205.0,0.0,145.0,7.0,0.0,18.0,0.0,105.0,25.0,10.0,16.0,0.0,0.08,,15.0
W131434093023901,45,Himachal Pradesh,SIRMOUR,Paonta sahib,SHIBPUR,30.486,77.5228,2019,8.45,284.0,14.0,102.0,7.0,0.0,90.0,0.0,147.0,38.0,13.0,16.0,1.0,0.12,,11.0
W302954077283401,46,Himachal Pradesh,SIRMOUR,Paonta sahib,DHAULAKUAN,30.5016,77.4733,2019,8.22,345.0,0.0,116.0,21.0,0.0,55.0,0.0,147.0,38.0,13.0,12.0,1.6,0.09,,10.0
W302625077372501,47,Himachal Pradesh,SIRMOUR,Paonta sahib,BADRIPUR,30.4489,77.6089,2019,8.21,431.0,0.0,130.0,35.0,35.0,33.0,0.0,168.0,34.0,20.0,19.0,3.7,0.07,,15.0
W302814077351501,48,Himachal Pradesh,SIRMOUR,Paonta sahib,AJIWALA,30.4703,77.5867,2019,8.46,492.0,57.0,116.0,28.0,0.0,25.0,0.0,158.0,34.0,18.0,19.0,42.0,0.13,,17.0
W302915077435001,49,Himachal Pradesh,SIRMOUR,Paonta sahib,KHODAWALA,30.4873,77.7047,2019,8.38,488.0,57.0,160.0,21.0,0.0,4.5,0.0,252.0,25.0,46.0,7.0,1.3,0.1,,14.0
W303112077171201,50,Himachal Pradesh,SIRMOUR,Paonta sahib,AKKWALA,30.5201,77.2869,2019,8.13,290.0,0.0,145.0,14.0,0.0,56.0,0.0,116.0,21.0,15.0,30.0,4.5,0.07,,17.0
W221356076232801,51,Himachal Pradesh,UNA,Amb,DAULATPUR,31.7791,75.9972,2019,8.35,805.0,36.0,122.0,92.0,135.0,24.0,0.0,190.0,28.0,29.0,120.0,2.2,0.15,,25.0
W314100076070002,52,Himachal Pradesh,UNA,Amb,AMB,31.6853,76.1216,2019,8.7,490.0,60.0,183.0,21.0,0.0,0.6000000000000001,0.0,170.0,12.0,34.0,48.0,7.5,0.22,,15.0
W313945076034501,53,Himachal Pradesh,UNA,Amb,GAGRET,31.6607,76.062,2019,8.1,400.0,0.0,110.0,42.0,35.0,23.0,0.0,180.0,56.0,15.0,12.0,1.2,0.07,,23.0
W313215076121501,54,Himachal Pradesh,UNA,Una,PANOH,31.5349,76.2009,2019,7.48,445.0,0.0,232.0,28.0,0.0,9.9,0.0,90.0,8.0,7.3,69.0,1.3,0.14,,16.0
W314215076041501,55,Himachal Pradesh,UNA,Amb,MUBARIKPUR,31.7083,76.0844,2019,8.25,410.0,0.0,159.0,28.0,35.0,23.0,0.0,170.0,24.0,27.0,26.0,1.3,0.14,,20.0
W312215076151501,56,Himachal Pradesh,UNA,Haroli,LALEHRI,31.3734,76.2633,2019,8.5,472.0,36.0,183.0,28.0,0.0,18.0,0.0,180.0,28.0,27.0,40.0,2.7,0.23,,27.0
W312800076154501,57,Himachal Pradesh,UNA,Una,UNA,31.4696,76.2707,2019,8.4,790.0,24.0,134.0,106.0,88.0,23.0,0.0,190.0,20.0,34.0,102.0,1.5,0.23,,25.0
W215547076265101,58,Himachal Pradesh,UNA,Amb,JAWAR,31.7433,76.195,2019,8.24,280.0,0.0,134.0,21.0,25.0,16.0,0.0,130.0,32.0,12.0,22.0,2.7,0.2,,21.0
W313207076242302,59,Himachal Pradesh,UNA,Bangana,RAJLI PANJAL,31.5362,76.4052,2019,8.38,705.0,36.0,146.0,35.0,18.0,0.0,0.0,230.0,16.0,46.0,70.0,1.8,0.16,,18.0
W313725076203101,60,Himachal Pradesh,UNA,Bangana,BHANGANA,31.6248,76.3406,2019,8.4,427.0,24.0,110.0,50.0,5.0,18.0,0.0,110.0,20.0,15.0,52.0,0.0,0.15,,13.0
W280415076344501,61,Himachal Pradesh,UNA,Bangana,BAWAL,31.5481,76.3064,2019,8.79,640.0,71.0,247.0,43.0,0.0,2.8,0.0,180.0,20.0,32.0,86.0,4.0,0.45,,12.0
W262330084571501,62,Himachal Pradesh,UNA,Amb,DHARAMPUR,31.4466,76.2284,2019,8.42,401.0,57.0,58.0,21.0,0.0,39.0,0.0,150.0,32.0,17.0,26.0,0.0,0.24,,25.0
W313237076082601,63,Himachal Pradesh,UNA,Amb,PANJAWAR,31.5473,76.1428,2019,8.38,329.0,29.0,73.0,21.0,0.0,51.0,0.0,140.0,20.0,22.0,15.0,1.3,0.13,,14.0
W314020076024501,64,Himachal Pradesh,UNA,Amb,AMBOTA,31.6705,76.048,2019,8.12,523.0,0.0,102.0,21.0,57.0,115.0,0.0,220.0,56.0,19.0,19.0,1.0,0.07,,15.0
W314128076020601,65,Himachal Pradesh,UNA,Amb,SINGHNEI,31.6916,76.0353,2019,8.47,265.0,43.0,87.0,28.0,0.0,12.0,0.0,110.0,24.0,12.0,35.0,1.5,0.14,,16.0
W314513076003901,66,Himachal Pradesh,UNA,Amb,MAWA KALAN,31.7549,76.0085,2019,8.26,220.0,0.0,145.0,14.0,0.0,12.0,0.0,105.0,17.0,15.0,18.0,0.0,0.3,,11.0
W314733075590901,67,Himachal Pradesh,UNA,Amb,BABEHR,31.7897,75.9918,2019,8.06,353.0,0.0,203.0,21.0,0.0,12.0,0.0,137.0,25.0,18.0,28.0,2.0,0.24,,20.0
W314816075591201,68,Himachal Pradesh,UNA,Amb,RAIPUR MARWADI,31.8002,75.9836,2019,8.1,325.0,0.0,102.0,43.0,0.0,25.0,0.0,147.0,29.0,18.0,10.0,1.0,0.16,,21.0
W312343076175601,69,Himachal Pradesh,UNA,Amb,NANGRAN,31.3979,76.2922,2019,8.37,260.0,29.0,116.0,14.0,0.0,5.8,0.0,116.0,17.0,18.0,21.0,2.0,0.18,,14.0
W232212073403801,70,Himachal Pradesh,UNA,Amb,KHANPUR,31.3779,76.3068,2019,8.04,642.0,0.0,363.0,43.0,0.0,8.9,0.0,273.0,42.0,41.0,37.0,2.1,0.23,,16.0
W312121076190201,71,Himachal Pradesh,UNA,Amb,SANTOKHGARH,31.3577,76.3154,2019,8.38,523.0,43.0,102.0,64.0,0.0,19.0,0.0,210.0,21.0,38.0,26.0,2.5,0.18,,17.0
W313533076073401,72,Himachal Pradesh,UNA,Amb,LOHARLI,31.5927,76.1263,2019,8.12,385.0,0.0,102.0,57.0,0.0,21.0,0.0,126.0,31.0,10.0,24.0,3.1,0.11,,19.0
W300146073395501,73,Rajasthan,GANGANAGAR,KARANPUR,Sunderpura_Pz,30.029,73.665,2019,8.1,275.0,0.0,132.0,38.0,54.0,6.0,0.07,170.0,47.0,12.82,24.0,6.1,0.32,179.0,
W255500083450001,74,Rajasthan,HANUMANGARH,SANGARIYA,RATANPURA,29.85,74.45,2019,8.45,1110.0,72.0,364.0,60.0,85.0,46.0,0.16,165.0,43.0,14.03,209.0,12.8,0.76,722.0,
W295045074143001,75,Rajasthan,GANGANAGAR,SANGARIYA,KHERUWALA,29.846,74.242,2019,7.96,300.0,0.0,120.0,52.0,36.0,7.0,0.1,130.0,39.0,7.95,38.0,6.4,0.5,195.0,
W295015074243501,76,Rajasthan,HANUMANGARH,SANGARIYA,BOLANWALI,29.838,74.41,2019,7.34,310.0,0.0,108.0,31.0,63.0,7.0,0.06,145.0,47.0,6.74,26.0,6.3,0.5,202.0,
W294930073434501,77,Rajasthan,GANGANAGAR,GANGANAGAR,CHUNAWAD,29.825,73.729,2019,8.0,280.0,0.0,120.0,38.0,49.0,9.0,0.05,140.0,51.0,3.1,31.0,5.0,0.32,182.0,
W294900073270001,78,Rajasthan,GANGANAGAR,KARANPUR,KARANPUR1,29.817,73.45,2019,7.4,275.0,0.0,120.0,45.0,48.0,8.0,0.15,160.0,43.0,12.82,26.0,5.9,0.55,179.0,
W294830073440001,79,Rajasthan,GANGANAGAR,GANGANAGAR,TATARSAR,29.808,73.733,2019,8.0,570.0,0.0,181.0,60.0,116.0,9.0,0.1,240.0,59.0,22.56,54.0,7.1,0.85,371.0,
W294745073264501,80,Rajasthan,GANGANAGAR,KARANPUR,RUPANAGAR,29.796,73.446,2019,8.2,450.0,0.0,242.0,38.0,66.0,6.0,0.12,250.0,79.0,12.86,33.0,8.0,0.55,293.0,
W294530074160001,81,Rajasthan,HANUMANGARH,HANUMANGARH,DHOLIPAL,29.758,74.267,2019,7.5,2040.0,0.0,413.0,351.0,205.0,55.0,0.1,795.0,171.0,89.56,115.0,42.0,0.17,1326.0,
W294445073540001,82,Rajasthan,GANGANAGAR,SADULSHAHAR,GANESHGARH,29.746,73.9,2019,8.0,330.0,0.0,169.0,31.0,51.0,8.0,0.06,180.0,51.0,12.83,27.0,7.6,1.1,215.0,
W294330073354501,83,Rajasthan,GANGANAGAR,PADAMPUR,DELWAN,29.725,73.596,2019,7.73,245.0,0.0,120.0,31.0,51.0,8.0,0.1,130.0,43.0,5.52,31.0,6.0,0.27,156.0,
W294200074291501,84,Rajasthan,HANUMANGARH,TIBI,SALEWALI,29.7,74.488,2019,8.0,2780.0,0.0,474.0,492.0,335.0,44.0,0.2,475.0,100.0,54.83,456.0,12.5,0.31,1807.0,
W294145073550001,85,Rajasthan,GANGANAGAR,SADULSHAHAR,SURANWALI,29.696,73.917,2019,8.0,1150.0,0.0,303.0,88.0,323.0,6.0,0.05,450.0,91.0,54.21,120.0,11.5,2.5,748.0,
W294100074094501,86,Rajasthan,HANUMANGARH,HANUMANGARH,PAKKASARNA,29.683,74.163,2019,7.88,1100.0,0.0,339.0,202.0,56.0,10.0,0.06,125.0,47.0,1.88,230.0,5.5,0.31,715.0,
W294058073513001,87,Rajasthan,GANGANAGAR,PADAMPUR,Narsinghpur,29.683,73.858,2019,8.2,250.0,0.0,120.0,31.0,39.0,7.0,0.05,130.0,39.0,7.95,26.0,5.6,0.35,163.0,
W293800074033601,88,Rajasthan,HANUMANGARH,PILIBANGA,GOLUWALA,29.633,74.06,2019,8.4,1400.0,36.0,498.0,81.0,105.0,67.0,0.12,170.0,43.0,15.25,260.0,19.7,5.4,910.0,
W293800073460001,89,Rajasthan,GANGANAGAR,PADAMPUR,BINJBALIA,29.633,73.767,2019,8.16,285.0,0.0,95.0,52.0,56.0,7.0,0.05,160.0,51.0,7.96,25.0,4.7,0.27,185.0,
W293800073270001,90,Rajasthan,GANGANAGAR,RAISINGHNAGAR,GAJSINGHPURA,29.633,73.45,2019,8.0,420.0,0.0,132.0,60.0,81.0,7.0,0.12,220.0,83.0,3.14,28.0,6.0,0.55,273.0,
W293730074303001,91,Rajasthan,HANUMANGARH,TIBI,CHANDURWALA,29.625,74.508,2019,7.72,290.0,0.0,132.0,31.0,54.0,10.0,0.15,150.0,51.0,5.53,29.0,4.0,0.14,189.0,
W293730074190001,92,Rajasthan,HANUMANGARH,HANUMANGARH,SATIPURA,29.625,74.317,2019,7.52,1400.0,0.0,413.0,159.0,161.0,11.0,0.05,295.0,70.0,29.26,200.0,9.7,0.8200000000000001,910.0,
W293345073581501,93,Rajasthan,HANUMANGARH,PILIBANGA,LAKHASAR1,29.563,73.971,2019,7.56,7300.0,0.0,413.0,1757.0,1020.0,18.0,0.5700000000000001,725.0,200.0,54.95,1450.0,19.4,2.5,4745.0,
W293340074200001,95,Rajasthan,HANUMANGARH,HANUMANGARH,KOHLA,29.561,74.333,2019,7.43,260.0,0.0,108.0,38.0,68.0,9.0,0.06,140.0,43.0,7.95,35.0,6.0,0.22,169.0,
W293230073270001,96,Rajasthan,GANGANAGAR,RAISINGHNAGAR,RAISINGHNAGAR,29.542,73.45,2019,8.2,500.0,0.0,205.0,53.0,65.0,19.0,0.2,200.0,64.0,9.8,57.0,7.0,0.6000000000000001,325.0,
W293115073350001,97,Rajasthan,GANGANAGAR,RAISINGHNAGAR,MUKLAWA,29.521,73.583,2019,8.1,260.0,0.0,120.0,38.0,52.0,8.0,0.12,140.0,43.0,7.95,32.0,6.0,0.27,169.0,
W293045073370001,98,Rajasthan,GANGANAGAR,RAISINGHNAGAR,JAGATSINGHWALA,29.513,73.617,2019,7.52,7750.0,0.0,344.0,1970.0,1002.0,29.0,0.67,1345.0,311.0,138.36,1270.0,27.4,0.22,5038.0,
W292930073374501,99,Rajasthan,GANGANAGAR,RAISINGHNAGAR,DABLA,29.492,73.629,2019,8.1,325.0,0.0,120.0,52.0,64.0,6.5,0.19,190.0,43.0,20.11,26.0,5.0,1.3,211.0,
W292445074120001,100,Rajasthan,HANUMANGARH,PILIBANGA,PANDITAWALI,29.413,74.2,2019,8.12,960.0,0.0,474.0,60.0,98.0,17.0,0.15,180.0,39.0,20.11,188.0,9.0,1.6,624.0,
W292245074161501,101,Rajasthan,HANUMANGARH,HANUMANGARH,CHOHLINYAWALI,29.379,74.271,2019,8.1,315.0,0.0,132.0,38.0,36.0,8.0,0.11,140.0,47.0,5.53,29.0,6.0,0.8,205.0,
W292132074355501,102,Rajasthan,HANUMANGARH,TIBI,CHISTIAN,29.359,74.599,2019,8.0,530.0,0.0,193.0,74.0,47.0,5.6,0.1,205.0,55.0,16.48,50.0,9.0,1.38,345.0,
W292010073411501,103,Rajasthan,GANGANAGAR,SRI VIJAYNAGAR,JAITSAR,29.354,73.633,2019,8.0,1120.0,0.0,291.0,173.0,155.0,19.0,0.67,270.0,64.0,26.82,165.0,33.0,0.22,728.0,
W291700074101501,104,Rajasthan,GANGANAGAR,PILIBANGA,SARDARPURA,29.283,74.171,2019,8.1,410.0,0.0,193.0,38.0,54.0,6.0,0.37,220.0,52.0,21.95,24.0,5.3,0.35,267.0,
W291650074460001,105,Rajasthan,HANUMANGARH,NOHAR,NOHAR1,29.281,74.767,2019,7.7,330.0,0.0,132.0,31.0,64.0,5.0,0.06,170.0,51.0,10.4,24.0,3.0,0.6000000000000001,215.0,
W291630073463001,106,Rajasthan,GANGANAGAR,SURATGARH,PADAMPURA,29.275,73.775,2019,7.88,575.0,0.0,242.0,45.0,94.0,12.0,0.11,120.0,34.0,8.55,112.0,6.8,0.85,374.0,
W291510074245001,107,Rajasthan,HANUMANGARH,RAWATSAR,RAWATSAR,29.253,74.414,2019,8.09,310.0,0.0,132.0,45.0,39.0,7.0,0.13,150.0,47.0,7.96,30.0,7.0,0.7000000000000001,202.0,
W291500074500001,108,Rajasthan,HANUMANGARH,NOHAR,RAMSARA1,29.25,74.833,2019,8.0,8300.0,0.0,810.0,1450.0,1405.0,40.0,0.56,2160.0,600.0,161.2,928.0,32.0,0.34,5395.0,
W291454073540001,109,Rajasthan,GANGANAGAR,SURATGARH,PIPERAN,29.248,73.9,2019,8.12,2000.0,0.0,791.0,159.0,50.0,218.0,0.07,70.0,23.0,3.07,475.0,6.7,3.6,1300.0,
W291400074450002,110,Rajasthan,HANUMANGARH,NOHAR,BHUKARKA,29.233,74.75,2019,8.2,1400.0,0.0,217.0,279.0,179.0,12.0,0.05,390.0,80.0,46.29,170.0,10.0,1.55,910.0,
W291330073464501,111,Rajasthan,GANGANAGAR,SURATGARH,SANGITA,29.225,73.779,2019,8.4,766.0,12.0,205.0,102.0,70.0,53.0,0.39,240.0,60.0,21.95,90.0,14.0,1.9,498.0,
W291300074320001,112,Rajasthan,HANUMANGARH,RAWATSAR,GANDEHALI,29.217,74.533,2019,7.72,350.0,0.0,144.0,45.0,30.0,10.0,0.05,160.0,47.0,10.39,30.0,1.1,1.1,228.0,
W291200073120001,113,Rajasthan,GANGANAGAR,ANUPGARH,ANUPGARH1,29.191,73.219,2019,7.79,2620.0,0.0,522.0,429.0,160.0,280.0,0.08,550.0,119.0,61.54,390.0,25.2,0.44,1703.0,
W291100074203001,114,Rajasthan,HANUMANGARH,RAWATSAR,DHANASAR,29.183,74.342,2019,8.15,290.0,0.0,108.0,45.0,43.0,6.0,0.05,145.0,38.0,12.2,26.0,6.0,0.93,182.0,
W291100073570001,115,Rajasthan,GANGANAGAR,SURATGARH,RAYANWALI,29.183,73.95,2019,7.7,320.0,0.0,108.0,45.0,87.0,11.0,0.37,180.0,39.0,20.11,30.0,7.6,0.75,208.0,
W291000073430001,116,Rajasthan,GANGANAGAR,SURATGARH,BIRMANA,29.167,73.717,2019,7.72,570.0,0.0,169.0,74.0,95.0,55.0,0.07,190.0,43.0,20.11,90.0,8.8,0.5,371.0,
W291000073223001,117,Rajasthan,GANGANAGAR,ANUPGARH,RAMSINGHPURA,29.167,73.375,2019,7.56,1460.0,0.0,254.0,300.0,145.0,32.0,0.18,610.0,159.0,51.86,86.0,11.5,0.45,949.0,
W290745073471501,118,Rajasthan,GANGANAGAR,SURATGARH,HARISINGHPURA,29.129,73.788,2019,7.7,650.0,0.0,205.0,116.0,55.0,32.0,0.64,190.0,63.0,7.98,103.0,5.0,0.4,423.0,
W290700073551001,119,Rajasthan,GANGANAGAR,SURATGARH,Birdhwal1,29.117,73.919,2019,7.73,345.0,0.0,83.0,88.0,50.0,8.0,0.24,190.0,47.0,17.68,27.0,5.5,0.52,224.0,
W290600075020001,120,Rajasthan,HANUMANGARH,BHADRA,MUNSARI,29.1,75.033,2019,8.0,1460.0,0.0,230.0,329.0,90.0,16.0,0.19,260.0,59.0,27.42,227.0,9.0,1.3,949.0,
W290600073430001,121,Rajasthan,GANGANAGAR,SURATGARH,LALGARIYA,29.1,73.717,2019,8.1,2600.0,0.0,998.0,266.0,305.0,20.0,0.07,200.0,62.0,11.02,620.0,9.3,7.8,1690.0,
W290500073220001,122,Rajasthan,GANGANAGAR,ANUPGARH,KHAL,29.083,73.367,2019,8.12,4030.0,0.0,800.0,602.0,795.0,19.0,0.21,170.0,39.0,17.67,1005.0,13.6,4.4,2620.0,
W290430074180001,123,Rajasthan,HANUMANGARH,RAWATSAR,BIRAMSAR,29.075,74.3,2019,7.72,280.0,0.0,108.0,53.0,63.0,9.0,0.07,145.0,36.0,13.42,40.0,6.0,0.27,182.0,
W290300073511501,124,Rajasthan,GANGANAGAR,SURATGARH,PIPASAR,29.05,73.854,2019,7.4,3320.0,0.0,730.0,457.0,512.0,330.0,0.2,420.0,120.0,29.32,750.0,10.0,3.9,2158.0,
W280545073521501,125,Rajasthan,HANUMANGARH,NOHAR,LAKHASAR2,29.033,74.733,2019,8.2,380.0,0.0,193.0,31.0,42.0,5.0,0.4,140.0,35.0,12.81,49.0,3.0,1.1,247.0,
W290200074170001,126,Rajasthan,HANUMANGARH,RAWATSAR,PURABSAR,29.033,74.283,2019,7.65,4100.0,0.0,156.0,591.0,1005.0,158.0,0.37,1315.0,271.0,155.33,370.0,23.0,0.55,2665.0,
W290200073313001,127,Rajasthan,GANGANAGAR,SURATGARH,BHOPALPURA,29.033,73.605,2019,7.43,3350.0,0.0,400.0,564.0,250.0,405.0,0.07,870.0,219.0,78.68,320.0,120.0,0.85,2178.0,
W290200073260001,128,Rajasthan,GANGANAGAR,SRI VIJAYNAGAR,GOMANWALI,29.033,73.433,2019,8.1,760.0,0.0,327.0,60.0,75.0,94.0,0.28,330.0,80.0,31.7,76.0,14.0,1.05,494.0,
W290050075055001,129,Rajasthan,HANUMANGARH,BHADRA,DUNGRANA,29.014,75.097,2019,7.2,350.0,0.0,144.0,31.0,66.0,7.0,0.09,160.0,51.0,7.96,35.0,1.0,0.7000000000000001,228.0,
W285830074173001,130,Rajasthan,HANUMANGARH,RAWATSAR,LAKHERAN,28.975,74.292,2019,7.51,14420.0,0.0,315.0,3732.0,1185.0,70.0,0.7000000000000001,1825.0,524.0,125.85,2290.0,15.5,0.15,8723.0,
W285815075020001,131,Rajasthan,HANUMANGARH,BHADRA,MALSISAR,28.971,75.033,2019,7.9,1965.0,0.0,310.0,450.0,165.0,41.0,0.05,540.0,124.0,56.07,250.0,10.0,0.52,1277.0,
W285600073530001,132,Rajasthan,BIKANER,LUNKARANSAR,ARJANSAR,28.933,73.883,2019,8.18,23000.0,0.0,342.0,6026.0,2914.0,80.0,0.0,2100.0,360.0,292.2,4500.0,15.5,8.48,14950.0,
W285600073243001,133,Rajasthan,BIKANER,LUNKARANSAR,KHARBARO,28.933,73.408,2019,8.24,3630.0,0.0,256.0,780.0,378.0,140.0,0.0,410.0,60.0,63.29,640.0,15.0,0.65,2360.0,
W285500074120001,134,Rajasthan,HANUMANGARH,RAWATSAR,PALLU,28.917,74.2,2019,7.53,300.0,0.0,108.0,38.0,81.0,8.0,0.21,155.0,43.0,11.6,35.0,4.6,0.1,195.0,
W285430074080001,135,Rajasthan,HANUMANGARH,RAWATSAR,DUDHAL,28.908,74.133,2019,8.1,830.0,0.0,230.0,81.0,130.0,55.0,0.05,105.0,39.0,1.87,172.0,6.3,0.28,540.0,
W285305073171501,136,Rajasthan,BIKANER,LUNKARANSAR,RANER,28.885,73.288,2019,8.34,4890.0,24.0,195.0,1148.0,658.0,40.0,0.0,620.0,112.0,82.8,880.0,5.6,1.1,3179.0,
W285200074164001,137,Rajasthan,HANUMANGARH,RAWATSAR,BISRASAR,28.867,74.278,2019,8.42,1315.0,36.0,461.0,116.0,50.0,130.0,0.1,455.0,122.0,36.62,140.0,7.0,2.3,855.0,
W285030074542901,138,Rajasthan,CHURU,TARANAGAR,DHIRAWAS,28.842,74.908,2019,7.5,9680.0,0.0,254.0,1750.0,2050.0,118.0,0.05,805.0,200.0,74.4,1890.0,5.3,0.96,6292.0,
W284800073040001,139,Rajasthan,GANGANAGAR,GHADSANA,ROJARI,28.8,73.067,2019,7.49,4560.0,0.0,317.0,1028.0,584.0,55.0,0.0,460.0,68.0,70.59,875.0,6.6,2.4,2964.0,
W284537075013701,140,Rajasthan,CHURU,TARANAGAR,BHALAUTIBBA,28.76,75.027,2019,7.6,370.0,0.0,156.0,38.0,60.0,29.0,0.13,205.0,55.0,16.48,26.5,5.1,0.6000000000000001,241.0,
W284530073462001,141,Rajasthan,BIKANER,LUNKARANSAR,MANARIA,28.758,73.772,2019,8.33,1870.0,18.0,390.0,248.0,205.0,48.0,0.0,60.0,16.0,5.0,415.0,3.3,4.8,1216.0,
W284205073455101,142,Rajasthan,BIKANER,LUNKARANSAR,BADERAN,28.701,73.764,2019,8.35,12100.0,54.0,183.0,3013.0,1450.0,62.0,0.0,1100.0,160.0,170.39,2280.0,9.0,5.93,7865.0,
W284200074210001,143,Rajasthan,CHURU,SARDARSHAHAR,SADASAR,28.7,74.35,2019,7.7,320.0,0.0,132.0,53.0,50.3,7.66,0.06,155.0,47.0,9.17,39.0,4.7,0.18,208.0,
W284010075140001,144,Rajasthan,CHURU,RAJGARH,DADREWA,28.669,75.233,2019,7.74,325.0,0.0,107.0,67.0,60.0,7.6,0.06,185.0,39.0,21.32,29.0,6.2,0.47,211.0,
W283830073520001,145,Rajasthan,BIKANER,LUNKARANSAR,MALKISAR,28.667,73.919,2019,8.24,8500.0,0.0,439.0,2410.0,662.0,56.0,0.01,1200.0,160.0,194.7,1520.0,7.7,6.1,5525.0,
W284000073080001,146,Rajasthan,BIKANER,KHAJUWALA,CHHATARGARH,28.667,73.133,2019,8.26,8830.0,0.0,268.0,2340.0,975.0,23.0,0.0,1050.0,260.0,97.57,1610.0,8.8,1.5,5740.0,
W283830074223001,147,Rajasthan,CHURU,SARDARSHAHAR,HARDESAR,28.642,74.375,2019,7.8,380.0,0.0,120.0,67.0,61.0,7.46,0.31,155.0,39.0,14.03,49.0,4.4,0.12,247.0,
W283900075180001,148,Rajasthan,CHURU,RAJGARH,NANGLI,28.635,75.3,2019,7.26,328.0,0.0,83.0,67.0,65.5,6.6,0.25,175.0,55.0,9.18,29.0,6.2,1.9,213.0,
W250600076120001,149,Rajasthan,CHURU,RAJGARH,RAJGARH1,28.633,75.375,2019,8.4,8420.0,48.0,230.0,2266.0,885.0,108.0,0.56,685.0,160.0,69.49,1745.0,5.1,2.95,5473.0,
W283530073044501,150,Rajasthan,BIKANER,KHAJUWALA,SATTASAR,28.592,73.192,2019,7.92,9360.0,0.0,268.0,2694.0,612.0,34.0,0.02,1200.0,320.0,97.64,1600.0,10.2,1.92,6084.0,
W283435073484001,151,Rajasthan,BIKANER,LUNKARANSAR,HARIASAR,28.576,73.811,2019,8.06,20210.0,0.0,207.0,6452.0,941.0,75.0,0.0,2700.0,400.0,413.81,3510.0,3.93,8.2,13137.0,
W283437074301601,152,Rajasthan,CHURU,SARDARSHAHAR,ASPALSAR,28.567,74.504,2019,8.0,8980.0,0.0,352.0,2137.0,1225.0,25.0,0.05,2425.0,600.0,225.63,990.0,25.0,0.72,5837.0,
W283015074441501,153,Rajasthan,CHURU,SARDARSHAHAR,MELUSAR,28.504,74.738,2019,8.16,4610.0,0.0,317.0,964.0,662.0,70.0,0.05,1020.0,96.0,189.76,620.0,1.7000000000000002,1.65,2997.0,
W282845073333001,154,Rajasthan,BIKANER,LUNKARANSAR,Khirera,28.479,73.558,2019,7.98,20320.0,0.0,378.0,5388.0,2247.0,92.0,0.0,1800.0,240.0,292.05,3930.0,4.3,9.24,13208.0,
W131800075460002,155,Rajasthan,CHURU,CHURU,RAMPURA,28.467,74.863,2019,8.39,3660.0,48.0,378.0,773.0,317.0,40.0,0.02,360.0,36.0,66.0,670.0,23.0,1.22,2379.0,
W282742073275101,156,Rajasthan,BIKANER,LUNKARANSAR,Binjawari Dw,28.462,73.464,2019,8.28,15050.0,0.0,342.0,3829.0,1949.0,61.0,0.0,1500.0,240.0,219.11,2880.0,11.0,5.44,9783.0,
W282620074262001,157,Rajasthan,CHURU,SARDARSHAHAR,SARDARSHAHAR,28.439,74.486,2019,8.4,2500.0,60.0,512.0,361.0,318.0,19.0,0.01,350.0,28.0,68.11,470.0,6.8,1.22,1625.0,
W283130073363001,158,Rajasthan,BIKANER,LUNKARANSAR,DHIRERA,28.439,73.573,2019,8.32,17800.0,42.0,146.0,4750.0,1937.0,70.0,0.0,1700.0,240.0,267.74,3340.0,12.8,5.42,11570.0,
W185900076230001,159,Rajasthan,CHURU,CHURU,SIRSALA,28.433,75.131,2019,8.37,3400.0,18.0,610.0,680.0,201.0,36.0,0.0,320.0,24.0,63.24,650.0,0.7000000000000001,1.32,2210.0,
W282500074240001,160,Rajasthan,CHURU,SARDARSHAHAR,MITTASAR,28.417,74.384,2019,8.42,1470.0,39.0,415.0,184.0,59.0,60.0,0.06,100.0,16.0,14.61,308.0,6.2,0.7000000000000001,956.0,
W282450074151001,161,Rajasthan,CHURU,SARDARSHAHAR,KHUNDIA,28.414,74.253,2019,8.28,3960.0,0.0,488.0,900.0,344.0,57.0,0.03,340.0,40.0,58.4,800.0,1.3,1.6800000000000002,2574.0,
W200656085500201,162,Rajasthan,JHUNJHUNU,SURAJGARH,PIPLI,28.413,75.733,2019,7.98,1770.0,0.0,281.0,269.0,264.0,0.778,0.014,190.0,36.0,24.36,320.0,2.99,0.998,1151.0,
W282345075400001,163,Rajasthan,JHUNJHUNU,SURAJGARH,Morwa,28.396,75.667,2019,7.94,1800.0,0.0,573.0,163.0,201.0,23.0,0.013,190.0,32.0,26.78,340.0,2.29,1.16,1170.0,
W281900073113001,164,Rajasthan,BIKANER,BIKANER,LAKHUSAR,28.317,73.192,2019,7.99,13110.0,0.0,256.0,3687.0,625.0,28.0,0.0,1400.0,320.0,146.27,2150.0,16.4,3.75,8522.0,
W281845075263001,165,Rajasthan,JHUNJHUNU,CHIRAWA,MANDRELA,28.313,75.44,2019,7.83,240.0,0.0,43.0,14.0,62.0,0.0,0.011,90.0,16.0,12.18,11.0,6.69,0.094,156.0,
W281810075373001,166,Rajasthan,JHUNJHUNU,SURAJGARH,Devroad,28.303,75.625,2019,7.77,1000.0,0.0,201.0,149.0,124.0,31.0,0.014,170.0,32.0,21.92,165.0,2.29,0.811,650.0,
W281545074523001,167,Rajasthan,CHURU,CHURU,BINASAR,28.263,74.875,2019,8.07,6240.0,0.0,366.0,1361.0,1045.0,104.0,0.0,1280.0,136.0,228.71,975.0,0.6000000000000001,1.92,4056.0,
W281425075380001,168,Rajasthan,JHUNJHUNU,CHIRAWA,Shivpura1,28.24,75.601,2019,7.84,1670.0,0.0,226.0,241.0,196.0,34.0,0.012,230.0,44.0,29.23,243.0,3.09,1.217,1086.0,
W281515072511001,169,Rajasthan,BIKANER,KHAJUWALA,AMARPURA,28.223,72.824,2019,7.78,10000.0,0.0,427.0,2304.0,1397.0,60.0,0.0,800.0,120.0,121.71,1980.0,10.0,5.34,6500.0,
W281300075405001,170,Rajasthan,JHUNJHUNU,SURAJGARH,Lakhu,28.217,75.684,2019,7.76,1100.0,0.0,177.0,177.0,164.0,30.0,0.008,270.0,36.0,43.81,148.0,2.85,2.85,715.0,
W281300074480001,171,Rajasthan,CHURU,CHURU,Satda,28.217,74.8,2019,8.41,2930.0,60.0,451.0,518.0,238.0,27.0,0.01,190.0,32.0,26.78,590.0,1.0,1.25,1905.0,
W281145073232801,172,Rajasthan,BIKANER,BIKANER,KHARA1,28.196,73.391,2019,7.8,9140.0,0.0,354.0,2410.0,1028.0,19.8,0.0,1600.0,400.0,146.37,1460.0,3.9,0.95,5941.0,
W281030075271501,173,Rajasthan,JHUNJHUNU,JHUNJHUNUN,Math,28.175,75.454,2019,7.6,1270.0,0.0,165.0,326.0,43.0,26.0,0.005,140.0,28.0,17.05,240.0,1.78,0.972,826.0,
W280500074003001,175,Rajasthan,BIKANER,DUNGARGARH,DUNGARGARH,28.083,74.008,2019,8.37,1270.0,18.0,207.0,191.0,50.0,140.0,0.0,175.0,28.0,25.56,210.0,3.4,0.8200000000000001,826.0,
W280400074440002,176,Rajasthan,CHURU,RATANGARH,TIDIYASAR,28.066,74.754,2019,8.13,1270.0,0.0,281.0,198.0,67.0,75.0,0.0,160.0,24.0,24.34,210.0,22.5,0.95,826.0,
W280345076150001,177,Rajasthan,ALWAR,NEEMRANA,KANHAWAS,28.063,76.363,2019,8.21,1380.0,0.0,669.0,69.0,102.0,43.0,0.08,100.0,25.0,9.15,318.0,2.0,2.05,897.0,
W280239073040901,178,Rajasthan,BIKANER,KOLAYAT,KODAM DESAR,28.044,73.069,2019,8.2,4570.0,0.0,549.0,936.0,483.0,21.0,0.7000000000000001,320.0,48.0,48.68,910.0,4.1,3.67,2971.0,
W280230074473001,179,Rajasthan,CHURU,RATANGARH,BIRAMSAR1,28.042,74.792,2019,8.27,5730.0,0.0,427.0,1333.0,606.0,133.0,0.0,580.0,64.0,102.19,1100.0,0.3,0.28,3725.0,
W280300072293001,180,Rajasthan,BIKANER,KOLAYAT,MANKASAR,28.035,72.492,2019,8.24,5800.0,0.0,537.0,1460.0,219.0,278.0,0.76,440.0,84.0,56.02,1150.0,21.2,5.52,3770.0,
W280135072073001,181,Rajasthan,BIKANER,KOLAYAT,RANJITPURA,28.026,72.125,2019,7.7,4800.0,0.0,220.0,1446.0,154.0,28.0,0.0,1340.0,232.0,185.06,480.0,17.7,0.77,3120.0,
W280000075320001,182,Rajasthan,JHUNJHUNU,UDAIPURWATI,Sithal,28.0,75.533,2019,7.85,1190.0,0.0,189.0,255.0,62.0,25.0,0.007,280.0,44.0,41.39,147.0,3.01,0.707,774.0,
W275900076230001,183,Rajasthan,ALWAR,NEEMRANA,Neemrana,27.999,76.388,2019,7.87,2600.0,0.0,608.0,374.0,265.0,33.65,0.1,360.0,110.0,20.8,446.0,3.0,0.3,1690.0,
W275930072160001,184,Rajasthan,BIKANER,KOLAYAT,GODU,27.992,72.297,2019,7.75,9680.0,0.0,195.0,3226.0,125.0,55.0,0.0,3075.0,560.0,407.93,820.0,23.5,0.42,6292.0,
W275900074351501,185,Rajasthan,CHURU,RATANGARH,BHOJRASAR,27.983,74.588,2019,8.24,6112.0,0.0,427.0,1602.0,582.0,98.0,0.0,580.0,64.0,102.0,1250.0,0.6000000000000001,0.72,3973.0,
W275800072250001,186,Rajasthan,BIKANER,KOLAYAT,MODAYAT,27.967,72.417,2019,7.48,12700.0,0.0,110.0,4396.0,334.0,85.0,0.0,4000.0,960.0,390.18,1220.0,49.0,2.45,8255.0,
W275528074334001,187,Rajasthan,CHURU,RATANGARH,PERIHARA,27.933,74.567,2019,8.28,5320.0,0.0,403.0,1333.0,449.0,70.0,0.0,520.0,72.0,82.75,1000.0,35.0,1.1,3458.0,
W275600072303001,188,Rajasthan,BIKANER,KOLAYAT,BAJJU,27.933,72.508,2019,7.84,10100.0,0.0,183.0,3368.0,100.0,58.0,0.0,3050.0,620.0,365.45,900.0,36.0,0.35,6565.0,
W254300071152001,189,Rajasthan,ALWAR,MANDAWAR,JASAI,27.93,76.49,2019,7.64,1020.0,0.0,486.0,76.0,25.0,25.0,0.1,250.0,62.0,23.17,138.0,4.0,0.34,663.0,
W275300076170001,190,Rajasthan,ALWAR,BEHROR,BEHROR,27.883,76.283,2019,7.65,1180.0,0.0,413.0,161.0,60.0,23.5,0.08,240.0,56.0,24.38,186.0,4.0,0.55,767.0,
W280300076410001,191,Rajasthan,ALWAR,KISHANGARH BAS,BOLNI,27.866,76.796,2019,8.4,1110.0,72.0,254.0,55.0,195.0,5.0,0.1,160.0,44.0,12.21,209.0,1.79,0.911,722.0,
W274900074170001,192,Rajasthan,CHURU,BIDASAR,BIDASAR,27.839,74.283,2019,8.53,1500.0,36.0,537.0,156.0,138.0,29.0,0.02,70.0,12.0,9.74,360.0,28.2,0.6000000000000001,975.0,
W274912076440001,193,Rajasthan,ALWAR,KISHANGARH BAS,KISHANGARH BAS1,27.82,76.733,2019,8.5,2245.0,60.0,388.0,350.0,225.0,27.0,0.1,210.0,50.0,20.73,442.0,2.0,0.32,1459.0,
W274840070245501,194,Rajasthan,JAISALMER,SAM,Nathu ka bera,27.814,70.416,2019,8.15,5100.0,0.0,561.0,1120.0,453.0,40.0,0.51,400.0,80.0,48.72,980.0,13.0,0.8,3315.0,
W193744079120001,195,Rajasthan,SIKAR,PATAN,PATAN,27.8,75.983,2019,8.14,5360.0,0.0,425.0,1364.0,375.0,145.0,0.21,1505.0,380.0,135.4,585.0,8.0,1.1,3484.0,
W274800070220001,196,Rajasthan,JAISALMER,SAM,TANOT,27.8,70.367,2019,8.07,8190.0,0.0,427.0,1872.0,730.0,432.0,9.5,620.0,48.0,121.62,1600.0,16.0,0.8,5324.0,
W274656077133601,197,Rajasthan,BHARATPUR,KAMAN,JURAHRA,27.782,77.227,2019,7.25,3350.0,0.0,499.0,733.0,340.0,13.0,0.11,900.0,250.0,67.17,420.0,9.5,4.6,2178.0,
W274600074013001,198,Rajasthan,CHURU,BIDASAR,SONIASAR,27.774,74.021,2019,8.2,1370.0,0.0,305.0,213.0,124.0,65.0,0.0,200.0,36.0,26.79,246.0,0.6000000000000001,1.0,891.0,
W274454075525401,199,Rajasthan,SIKAR,NEEM KA THANA,Barala,27.748,75.882,2019,8.2,1415.0,0.0,400.0,223.0,109.0,8.0,0.05,490.0,139.0,34.82,125.0,5.4,1.2,920.0,
W274415074281001,200,Rajasthan,CHURU,SUJANGARH,GULERIYA,27.738,74.419,2019,8.44,1510.0,42.0,525.0,170.0,62.0,31.0,0.03,70.0,12.0,10.0,350.0,0.5,0.65,982.0,
W274400074070001,201,Rajasthan,CHURU,BIDASAR,BAMBOO,27.733,74.117,2019,7.6,7740.0,0.0,512.0,1914.0,725.0,424.0,0.26,740.0,80.0,131.0,1600.0,1.0,0.27,5031.0,
W274312071584601,202,Rajasthan,JAISALMER,JAISALMER,Bhavanipura Shallow,27.72,71.979,2019,8.19,740.0,0.0,268.0,39.0,87.0,9.0,0.08,50.0,12.0,4.88,145.0,10.0,1.52,481.0,
W274130076212001,203,Rajasthan,ALWAR,BANSUR,BANSUR,27.692,76.356,2019,8.4,2770.0,48.0,888.0,367.0,95.0,13.65,0.25,410.0,104.0,36.6,472.0,7.0,1.06,1801.0,
W274207076084101,204,Rajasthan,JAIPUR,KOTPUTLI,Kansli,27.69,76.145,2019,7.64,1260.0,0.0,262.0,142.0,208.0,3.64,0.004,300.0,44.0,46.25,154.0,4.57,1.33,819.0,
W273536070270001,205,Rajasthan,JAISALMER,SAM,RANAU,27.658,70.463,2019,8.15,2600.0,0.0,220.0,645.0,209.0,16.0,0.41,230.0,12.0,48.64,500.0,5.9,1.3,1690.0,
W273917077034801,206,Rajasthan,BHARATPUR,PAHARI,Gopalgarh,27.655,77.063,2019,7.58,8600.0,0.0,803.0,2314.0,970.0,31.0,0.59,1220.0,306.0,111.0,1720.0,8.0,2.0,5590.0,
W273805070144001,207,Rajasthan,JAISALMER,SAM,SADEWALA,27.635,70.244,2019,8.0,8070.0,0.0,122.0,2283.0,672.0,30.0,0.12,1200.0,224.0,155.88,1300.0,16.0,0.8,5246.0,
W260820082073001,208,Rajasthan,ALWAR,RAMGARH,RAMGARH1,27.594,76.814,2019,8.2,3930.0,0.0,718.0,714.0,280.0,130.0,0.08,690.0,170.0,64.64,601.0,2.0,1.6,2555.0,
W212730079502501,209,Rajasthan,BHARATPUR,DEEG,SIHORA,27.57,77.3,2019,7.3,1890.0,0.0,278.0,471.0,125.0,26.0,0.05,785.0,200.0,69.54,104.0,31.0,2.1,1229.0,
W273237071175001,210,Rajasthan,JAISALMER,JAISALMER,Jjw Deep,27.544,71.297,2019,7.98,720.0,0.0,256.0,71.0,39.0,22.0,0.21,150.0,24.0,21.91,97.0,9.0,1.2,468.0,
W273200077073001,211,Rajasthan,BHARATPUR,NAGAR,GULPURA,27.533,77.125,2019,7.85,15460.0,0.0,850.0,4820.0,610.0,160.0,0.31,2750.0,620.0,292.51,2520.0,30.5,1.15,10049.0,
W273130077043001,212,Rajasthan,BHARATPUR,NAGAR,JAISARI,27.525,77.075,2019,8.4,17030.0,72.0,498.0,4102.0,2650.0,172.0,0.5,2970.0,700.0,297.47,2882.0,6.0,2.6,11070.0,
W273130070094401,213,Rajasthan,JAISALMER,SAM,LONGEWALA,27.525,70.162,2019,7.98,3100.0,0.0,256.0,801.0,212.0,2.0,0.13,250.0,44.0,34.09,600.0,11.0,1.87,2015.0,
W273100074310001,214,Rajasthan,NAGAUR,LADNU,SANWARD,27.517,74.517,2019,7.98,4500.0,0.0,720.0,737.0,250.0,475.0,1.135,1010.0,20.0,233.43,570.0,21.5,0.7000000000000001,2925.0,
W273100071500001,215,Rajasthan,JAISALMER,JAISALMER,AWAI,27.517,71.833,2019,8.18,1800.0,0.0,354.0,199.0,206.0,125.0,0.04,200.0,32.0,29.21,280.0,69.0,3.45,1170.0,
W272910070160502,216,Rajasthan,JAISALMER,SAM,GAMANEWALA,27.486,70.316,2019,8.1,5460.0,0.0,317.0,1375.0,445.0,70.0,0.37,540.0,80.0,82.76,1000.0,14.2,4.35,3549.0,
W271815074304501,217,Rajasthan,NAGAUR,DIDWANA,SINGHANA1,27.475,74.513,2019,7.79,12000.0,0.0,659.0,2659.0,1540.0,550.0,0.0,2200.0,200.0,413.57,1900.0,15.6,3.25,7800.0,
W272739076235601,218,Rajasthan,ALWAR,THANAGAZI,Bairawas,27.461,76.399,2019,8.1,5170.0,0.0,596.0,1147.0,865.0,47.0,0.25,1870.0,400.0,212.01,541.0,4.0,0.85,3361.0,
W272630076313001,219,Rajasthan,ALWAR,UMREN,Baran1,27.442,76.525,2019,7.82,520.0,0.0,82.0,99.0,85.0,5.0,0.1,210.0,60.0,15.0,43.0,5.0,0.4,338.0,
W272512071393201,220,Rajasthan,JAISALMER,JAISALMER,Sataya_DW,27.42,71.659,2019,7.85,2560.0,0.0,451.0,496.0,189.0,7.0,0.02,300.0,48.0,43.82,438.0,20.0,2.05,1664.0,
W272342077210901,221,Rajasthan,BHARATPUR,DEEG,MANDHERA,27.395,77.353,2019,7.6,2070.0,0.0,535.0,287.0,195.0,80.0,0.65,735.0,160.0,81.64,172.0,8.8,2.36,1346.0,
W272231075494301,222,Rajasthan,JAIPUR,SHAHPURA,Amarsar,27.375,75.829,2019,7.71,550.0,0.0,159.0,35.0,124.0,16.0,0.012,130.0,24.0,17.05,89.0,2.58,1.825,358.0,
W272200074310001,223,Rajasthan,NAGAUR,DIDWANA,RAGHUNATHPURA,27.375,74.517,2019,7.92,5840.0,0.0,805.0,1574.0,86.0,80.0,0.0,640.0,68.0,114.35,1100.0,10.0,2.6,3796.0,
W272100076500001,224,Rajasthan,ALWAR,LAXMANGARH,LACHMANGARH,27.35,76.86,2019,7.74,6780.0,0.0,400.0,991.0,1610.0,33.0,0.08,2010.0,506.0,181.75,654.0,4.0,0.62,4407.0,
W272045074290001,225,Rajasthan,NAGAUR,DIDWANA,KOLIA,27.346,74.483,2019,8.12,1400.0,0.0,537.0,191.0,7.0,10.0,0.01,430.0,68.0,63.3,130.0,12.5,0.6000000000000001,910.0,
W244800072404501,226,Rajasthan,JAIPUR,VIRATNAGAR,Palri,27.345,76.114,2019,7.78,570.0,0.0,220.0,35.0,57.0,22.0,0.003,210.0,40.0,26.79,43.0,3.36,0.323,371.0,
W272030072191001,227,Rajasthan,JODHPUR,BAP,BARI DHANI,27.342,72.306,2019,8.1,1050.0,0.0,510.0,138.0,350.0,60.0,0.27,470.0,139.0,29.95,260.0,1.0,3.3,683.0,
W271900070021501,228,Rajasthan,JAISALMER,SAM,GOTARU,27.317,70.038,2019,8.24,2370.0,0.0,317.0,574.0,96.0,15.0,0.2,180.0,32.0,24.35,460.0,6.0,1.18,1541.0,
W271842076242801,229,Rajasthan,ALWAR,RAJGARH,Kalighati Sariska,27.312,76.408,2019,7.8,1510.0,0.0,573.0,204.0,115.0,6.0,0.1,320.0,84.0,26.85,260.0,2.0,0.32,982.0,
W271800073370001,230,Rajasthan,NAGAUR,NAGAUR,BARANI,27.3,73.617,2019,7.6,18230.0,0.0,329.0,4006.0,3770.0,165.0,0.0,2650.0,540.0,316.73,3350.0,53.0,6.7,11850.0,
W271739076443001,231,Rajasthan,ALWAR,RENI,LALKA,27.294,76.742,2019,7.4,1325.0,0.0,217.0,373.0,40.0,20.0,0.07,490.0,130.0,40.27,125.0,4.0,0.3,861.0,
W235845080185301,232,Rajasthan,ALWAR,RAJGARH,Dharampura,27.271,76.554,2019,7.8,840.0,0.0,437.0,76.0,40.0,5.0,0.08,260.0,70.0,20.75,118.0,4.0,0.55,546.0,
W271415076240001,233,Rajasthan,ALWAR,RAJGARH,TEHLA,27.238,76.4,2019,8.13,620.0,0.0,254.0,33.0,105.0,5.0,0.07,290.0,90.0,15.91,37.0,3.0,0.23,403.0,
W271330076153001,234,Rajasthan,ALWAR,THANAGAZI,GHATA MORDI,27.225,76.258,2019,7.92,1040.0,0.0,339.0,161.0,15.0,30.0,0.06,330.0,84.0,29.28,29.0,122.0,0.11,676.0,
W271300077300001,235,Rajasthan,BHARATPUR,SEWAR,Bharatpur1,27.217,77.5,2019,7.9,700.0,0.0,291.0,81.0,80.0,5.6,0.07,200.0,42.0,23.15,110.0,6.7,1.3,455.0,
W271230076473001,236,Rajasthan,ALWAR,RENI,GADI SWAIRAM,27.208,76.792,2019,8.13,295.0,0.0,132.0,26.0,35.0,13.2,0.07,80.0,21.0,6.71,52.0,3.0,0.11,192.0,
W271035070333001,237,Rajasthan,JAISALMER,SAM,HABOOR,27.176,70.558,2019,8.12,3230.0,0.0,256.0,702.0,395.0,4.0,0.13,470.0,96.0,56.04,520.0,15.0,0.88,2100.0,
W270953073081601,238,Rajasthan,NAGAUR,KHEENVSAR,Karnoo_Pz,27.176,73.138,2019,8.0,3010.0,0.0,427.0,737.0,301.0,17.7,0.0,420.0,32.0,82.7,595.0,5.3,1.0,1957.0,
W271000076350001,239,Rajasthan,DAUSA,BANDIKUI,Baswa1,27.159,76.583,2019,7.64,2030.0,0.0,380.0,414.0,195.0,35.0,0.05,455.0,124.0,35.0,309.0,5.0,0.75,1320.0,
W270851076065501,240,Rajasthan,JAIPUR,JAMWA RAMGARH,Raiser,27.148,76.115,2019,8.39,500.0,36.0,180.0,24.0,50.0,43.0,0.42,230.0,52.0,24.38,45.0,5.0,0.25,325.0,
W271153074494001,241,Rajasthan,NAGAUR,KUCHAMAN CITY,Kuchaman_Pz,27.145,74.866,2019,7.82,3240.0,0.0,634.0,596.0,105.0,300.0,0.0,440.0,24.0,92.42,585.0,4.4,0.8,2106.0,
W270800073220001,242,Rajasthan,NAGAUR,KHEENVSAR,DEU,27.133,73.294,2019,8.2,3920.0,0.0,549.0,986.0,432.0,25.0,0.01,570.0,60.0,102.19,800.0,5.17,0.98,2548.0,
W270850070253001,243,Rajasthan,JAISALMER,SAM,KHUYIALA,27.127,70.508,2019,8.03,1530.0,0.0,439.0,170.0,82.0,100.0,0.12,300.0,72.0,29.26,180.0,64.0,1.9,995.0,
W270600070550002,244,Rajasthan,JAISALMER,JAISALMER,CHODHARIYA,27.1,70.926,2019,7.78,6610.0,0.0,268.0,1815.0,563.0,1.8,0.3,1240.0,224.0,165.6,970.0,23.0,2.78,4297.0,
W270550076471201,245,Rajasthan,DAUSA,BANDIKUI,Sodan Ka Bas,27.097,76.787,2019,7.89,1400.0,0.0,510.0,145.0,95.0,95.0,0.42,338.0,80.0,33.65,170.0,75.0,0.62,910.0,
W270500071330001,246,Rajasthan,JAISALMER,SANKRA,SRIBHADRIA,27.083,71.55,2019,7.65,5820.0,0.0,183.0,1647.0,389.0,38.0,0.18,580.0,144.0,53.66,1050.0,38.0,0.9,3783.0,
W270422070332501,247,Rajasthan,JAISALMER,SAM,KUCHERI,27.073,70.557,2019,8.17,1870.0,0.0,256.0,354.0,215.0,3.0,0.4,160.0,48.0,9.78,352.0,10.0,0.75,1216.0,
W270314075243301,248,Rajasthan,JAIPUR,SAMBHAR,Kheerwa,27.054,75.409,2019,8.41,1980.0,12.0,378.0,305.0,211.0,25.0,0.098,130.0,24.0,17.05,401.0,2.52,0.671,1287.0,
W270430076570001,249,Rajasthan,DAUSA,MAHWA,MAHUWA,27.049,76.927,2019,7.4,4950.0,0.0,350.0,820.0,540.0,655.0,0.67,735.0,180.0,69.51,828.0,6.1,1.45,3218.0,
W270200077330001,250,Rajasthan,BHARATPUR,RUPBAS,KHANUA,27.033,77.55,2019,8.2,5830.0,0.0,339.0,1428.0,380.0,515.0,0.26,1575.0,360.0,164.55,668.0,66.0,0.6000000000000001,3790.0,
W270111076004301,251,Rajasthan,JAIPUR,JAMWA RAMGARH,Jamwa Ramgarh,27.018,76.012,2019,7.57,920.0,0.0,437.0,88.0,45.0,125.0,0.61,420.0,100.0,41.45,100.0,5.0,1.45,598.0,
W270050074323801,252,Rajasthan,NAGAUR,MAKRANA,MODI CHARANAN,27.014,74.544,2019,8.27,10000.0,0.0,964.0,2368.0,1639.0,40.0,0.0,1520.0,32.0,350.15,2000.0,5.1,0.7000000000000001,6500.0,
W265945077293002,253,Rajasthan,BHARATPUR,RUPBAS,DAHINAGAON,26.996,77.492,2019,7.72,1170.0,0.0,315.0,166.0,40.0,168.0,0.05,400.0,104.0,34.16,111.0,26.0,0.65,761.0,
W243814086410701,254,Rajasthan,JAISALMER,JAISALMER,CHANDAN,26.992,71.3,2019,7.58,2930.0,0.0,390.0,602.0,279.0,2.0,0.19,200.0,40.0,24.36,575.0,15.0,2.05,1905.0,
W265900076243001,255,Rajasthan,DAUSA,DAUSA,Kalipahari,26.983,76.38,2019,8.4,700.0,36.0,291.0,52.0,35.0,26.0,0.25,105.0,32.0,6.12,154.0,4.2,0.6000000000000001,455.0,
W265900075520001,256,Rajasthan,JAIPUR,AMBER,AMBER,26.983,75.867,2019,7.42,1000.0,0.0,177.0,135.0,152.0,12.0,0.009,300.0,56.0,38.97,92.0,4.16,0.175,650.0,
W265830077381501,257,Rajasthan,BHARATPUR,RUPBAS,KHAN SURJAPUR,26.975,77.638,2019,8.2,680.0,0.0,266.0,88.0,92.0,6.6,0.05,210.0,76.0,4.96,110.0,6.6,3.65,442.0,
W265830076173001,258,Rajasthan,DAUSA,DAUSA,BAPI,26.975,76.292,2019,7.6,2800.0,0.0,498.0,712.0,55.0,8.0,0.14,785.0,204.0,67.11,315.0,8.8,1.45,1820.0,
W265706071560001,259,Rajasthan,JAISALMER,SANKRA,Gomath,26.969,71.933,2019,8.01,3315.0,0.0,525.0,645.0,224.0,120.0,0.17,170.0,28.0,24.35,690.0,6.0,1.9,2155.0,
W265805077150601,260,Rajasthan,BHARATPUR,BAYANA,BHAGORI,26.968,77.252,2019,8.0,880.0,0.0,352.0,116.0,40.0,35.0,0.07,270.0,56.0,31.68,115.0,6.0,0.65,572.0,
W265800076200001,261,Rajasthan,DAUSA,DAUSA,Jasuta,26.967,76.333,2019,7.86,2855.0,0.0,766.0,336.0,365.0,36.0,0.27,385.0,84.0,42.65,518.0,10.1,3.1,1856.0,
W265800071213002,262,Rajasthan,JAISALMER,JAISALMER,Delasar,26.967,71.358,2019,7.85,1540.0,0.0,329.0,262.0,150.0,35.0,0.05,280.0,44.0,41.39,250.0,6.0,1.63,1001.0,
W265750077213501,263,Rajasthan,BHARATPUR,BAYANA,BAWARI BARODA,26.964,77.39,2019,8.35,3030.0,36.0,925.0,450.0,405.0,10.4,0.41,110.0,30.0,8.55,820.0,7.2,5.5,1970.0,
W265743076004901,264,Rajasthan,JAIPUR,JAMWA RAMGARH,Papar,26.962,76.014,2019,8.0,750.0,0.0,339.0,67.0,80.0,25.0,0.17,220.0,48.0,24.37,115.0,7.2,1.07,488.0,
W265700077230001,265,Rajasthan,BHARATPUR,BAYANA,Kheria Mod,26.95,77.383,2019,8.0,825.0,0.0,388.0,31.0,125.0,6.0,0.14,317.0,68.0,35.82,82.0,2.6,0.65,536.0,
W265700076440001,266,Rajasthan,DAUSA,SIKRAI,LANGRA BALAJI,26.95,76.733,2019,8.5,5950.0,36.0,469.0,1576.0,355.0,11.0,0.31,1215.0,300.0,113.42,839.0,10.6,0.4,3868.0,
W265630070543501,267,Rajasthan,JAISALMER,JAISALMER,JAISALMER,26.942,70.91,2019,7.96,3610.0,0.0,549.0,503.0,416.0,260.0,0.51,770.0,160.0,90.0,450.0,46.0,1.2,2347.0,
W265600078081502,268,Rajasthan,DHAULPUR,RAJAKHERA,SIKRONDA,26.935,78.138,2019,7.85,1620.0,0.0,437.0,294.0,110.0,7.7,0.15,480.0,120.0,43.91,190.0,8.0,1.1,1053.0,
W265830074124501,269,Rajasthan,NAGAUR,DEGANA,CHOSLI,26.93,74.255,2019,8.14,900.0,0.0,134.0,68.0,230.0,8.588,0.014,270.0,40.0,41.38,83.0,3.24,0.014,585.0,
W265500072180001,270,Rajasthan,JODHPUR,DECHOO,KOLU,26.917,72.3,2019,8.42,2450.0,48.0,176.0,468.0,340.0,67.0,0.38,180.0,46.0,15.86,512.0,5.0,2.3,1593.0,
W265422075113901,271,Rajasthan,JAIPUR,SAMBHAR,Sambhar,26.906,75.22,2019,8.28,1500.0,0.0,293.0,183.0,152.0,112.0,0.009,470.0,80.0,65.74,128.0,3.7,0.73,975.0,
W265420077224001,272,Rajasthan,BHARATPUR,BAYANA,BANDH BARETA,26.904,77.376,2019,8.2,410.0,0.0,230.0,31.0,102.0,5.0,0.06,270.0,72.0,21.97,32.0,7.2,0.32,267.0,
W265415071213001,273,Rajasthan,JAISALMER,JAISALMER,DHAISAR,26.904,71.358,2019,7.77,1270.0,0.0,293.0,220.0,51.0,33.0,0.11,160.0,44.0,12.21,214.0,10.0,2.0,826.0,
W265400077020002,274,Rajasthan,DAUSA,MAHWA,Higetawari Dhani,26.9,77.033,2019,8.2,3500.0,0.0,913.0,570.0,235.0,13.5,0.46,485.0,130.0,39.06,610.0,3.4,1.2,2275.0,
W213820082203001,275,Rajasthan,JAISALMER,SANKRA,LAWAN,26.872,72.05,2019,7.74,3740.0,0.0,744.0,602.0,248.0,250.0,0.49,300.0,44.0,46.25,750.0,3.7,5.5,2431.0,
W265130077430001,276,Rajasthan,DHAULPUR,SAIPU,KANTHRI,26.858,77.717,2019,7.8,705.0,0.0,315.0,67.0,65.0,27.0,0.06,328.0,100.0,19.09,54.0,3.5,0.48,405.0,
W265130074023001,277,Rajasthan,NAGAUR,DEGANA,CHAKDHANI,26.846,74.042,2019,8.89,9000.0,108.0,927.0,1588.0,1595.0,80.0,0.0,1040.0,16.0,243.15,1800.0,3.2,16.8,5850.0,
W265000076040002,278,Rajasthan,JAIPUR,BASSI,BASSI2,26.833,76.063,2019,7.79,2200.0,0.0,376.0,230.0,520.0,23.0,0.06,440.0,120.0,34.18,342.0,11.0,0.56,1430.0,
W264930070301001,279,Rajasthan,JAISALMER,SAM,SAM1,26.825,70.523,2019,8.25,950.0,0.0,427.0,50.0,54.0,3.0,0.48,300.0,96.0,14.7,30.0,90.0,0.04,618.0,
W264900077573001,280,Rajasthan,DHAULPUR,DHAULPUR,Mangraul,26.817,77.958,2019,7.5,2830.0,0.0,681.0,237.0,685.0,49.0,0.17,268.0,60.0,28.76,636.0,3.5,1.3,1840.0,
W264900077411002,281,Rajasthan,DHAULPUR,BASERI,Lebudapura,26.817,77.686,2019,8.32,1320.0,12.0,535.0,145.0,162.0,26.0,0.05,188.0,48.0,16.59,308.0,2.74,2.15,858.0,
W264830077444501,282,Rajasthan,DHAULPUR,SAIPU,SEPAU,26.808,77.746,2019,8.0,670.0,0.0,254.0,38.0,170.0,16.6,0.1,360.0,92.0,31.72,43.0,2.9,0.21,436.0,
W264820071541501,283,Rajasthan,JAISALMER,SANKRA,KALEWA,26.806,71.904,2019,7.72,5325.0,0.0,622.0,1220.0,291.0,185.0,0.18,400.0,72.0,53.58,1050.0,6.0,2.5,3461.0,
W264800075260001,284,Rajasthan,JAIPUR,DUDU,NASNOTA,26.8,75.443,2019,8.12,11250.0,0.0,976.0,2730.0,3298.0,72.0,0.013,3550.0,560.0,523.41,2080.0,75.0,8.21,7313.0,
W264700076130001,285,Rajasthan,DAUSA,LAWAN,LAWAN1,26.783,76.217,2019,7.62,7510.0,0.0,596.0,2005.0,1500.0,21.0,0.73,1355.0,360.0,329.44,1220.0,4.6,2.1,4882.0,
W264632073381501,286,Rajasthan,JODHPUR,BHOPALGARH,Gerasni,26.776,73.644,2019,7.63,8900.0,0.0,281.0,2595.0,560.0,23.0,0.06,1340.0,256.0,170.5,1450.0,7.3,3.2,5785.0,
W264545071361501,287,Rajasthan,JAISALMER,SANKRA,GUDI KA TALA,26.763,71.604,2019,8.12,745.0,0.0,244.0,92.0,13.0,28.0,0.0,160.0,40.0,14.64,61.0,63.0,1.17,484.0,
W264532073461501,288,Rajasthan,NAGAUR,MERTA,Nokha Chandwata_Pz,26.759,73.771,2019,7.87,1310.0,0.0,354.0,184.0,106.0,25.0,0.01,390.0,24.0,80.26,134.0,4.2,1.45,852.0,
W264045075543001,289,Rajasthan,JAIPUR,CHAKSU,GONER,26.756,75.899,2019,8.37,3790.0,96.0,891.0,319.0,506.0,40.0,0.089,290.0,44.0,43.82,740.0,6.08,2.295,2464.0,
W264610077355001,290,Rajasthan,DHAULPUR,BASERI,SALEMPUR,26.755,77.597,2019,8.36,1370.0,36.0,630.0,67.0,70.0,14.0,0.15,348.0,72.0,40.93,190.0,3.1,1.54,891.0,
W261630079113001,291,Rajasthan,JAIPUR,BASSI,Madhogarh,26.753,76.166,2019,8.1,920.0,0.0,547.0,74.0,85.0,23.0,0.95,100.0,24.0,9.75,260.0,4.7,1.3,598.0,
W264506075513501,292,Rajasthan,JAIPUR,SANGANER,Bilwa Pz,26.746,75.855,2019,8.25,2720.0,0.0,830.0,234.0,332.0,53.0,0.041,360.0,60.0,51.13,475.0,8.54,0.852,1768.0,
W264445071301501,293,Rajasthan,JAISALMER,SANKRA,MADASAR,26.746,71.504,2019,8.13,3210.0,0.0,439.0,751.0,122.0,85.0,0.46,320.0,48.0,48.0,580.0,29.0,1.05,2087.0,
W204148085445401,294,Rajasthan,JAIPUR,BASSI,Deogaon,26.739,76.057,2019,7.3,1010.0,0.0,320.0,110.0,195.0,32.0,0.13,220.0,60.0,17.09,196.0,4.0,0.85,657.0,
W264415073383001,295,Rajasthan,JODHPUR,BHOPALGARH,DHARMI,26.738,73.642,2019,7.86,5860.0,0.0,320.0,1574.0,424.0,18.0,0.12,600.0,112.0,77.94,1080.0,5.0,2.5,3809.0,
W264410075180001,296,Rajasthan,JAIPUR,DUDU,PALLUKHURD,26.736,75.325,2019,8.25,930.0,0.0,342.0,28.0,168.0,24.0,0.105,230.0,36.0,34.08,87.0,76.0,0.851,605.0,
W264400077020001,297,Rajasthan,KARAULI,HINDAUN,Hindaun,26.733,77.033,2019,8.2,1530.0,0.0,815.0,187.0,55.0,20.0,0.4,500.0,126.0,45.13,216.0,33.0,0.87,995.0,
W264510075403301,298,Rajasthan,JAIPUR,SANGANER,Mathurawala,26.733,75.859,2019,8.42,6190.0,60.0,1342.0,922.0,568.0,81.0,0.09,680.0,124.0,90.11,1137.0,8.68,1.81,4024.0,
W264331073552901,299,Rajasthan,NAGAUR,MERTA,Merta Road_Pz,26.725,73.925,2019,8.12,1620.0,0.0,586.0,241.0,20.0,31.0,0.0,140.0,20.0,21.91,336.0,1.2,2.0,1053.0,
W264050076440001,300,Rajasthan,KARAULI,NADOTI,NADAUTI,26.718,76.689,2019,7.91,3780.0,0.0,498.0,570.0,735.0,9.0,0.5,520.0,120.0,53.63,680.0,3.3,2.4,2457.0,
W264249075540201,301,Rajasthan,JAIPUR,CHAKSU,SHIVDASPURA,26.714,75.89,2019,8.26,5850.0,0.0,1513.0,695.0,548.0,264.0,0.012,1280.0,180.0,202.02,793.0,5.47,1.065,3283.0,
W264223075300601,302,Rajasthan,JAIPUR,PHAGI,Tickel,26.706,75.502,2019,8.13,5000.0,0.0,939.0,624.0,698.0,100.0,0.12,1120.0,196.0,153.41,635.0,9.5,19.5,3250.0,
W174644077010201,303,Rajasthan,KARAULI,HINDAUN,ISLAMPUR,26.7,77.017,2019,8.5,3850.0,36.0,908.0,653.0,320.0,105.0,0.39,480.0,129.0,38.45,770.0,4.5,3.1,2503.0,
W264202075410001,304,Rajasthan,JAIPUR,PHAGI,Majhi Renwal,26.696,75.683,2019,7.95,7680.0,0.0,2001.0,539.0,1410.0,16.0,0.081,940.0,148.0,138.76,1351.0,8.12,1.731,4992.0,
W264135076553001,305,Rajasthan,KARAULI,HINDAUN,BADH KAMLA,26.693,76.925,2019,8.45,1870.0,24.0,925.0,88.0,225.0,9.0,0.16,330.0,96.0,22.0,385.0,3.4,0.38,1213.0,
W264100077520002,306,Rajasthan,DHAULPUR,DHAULPUR,Dhaulpur1,26.691,77.891,2019,7.8,1570.0,0.0,290.0,350.0,145.0,6.32,0.14,308.0,70.0,32.42,268.0,4.1,2.5,1021.0,
W263905075351101,307,Rajasthan,JAIPUR,PHAGI,Ladana,26.651,75.586,2019,8.32,4000.0,12.0,390.0,702.0,665.0,24.0,0.108,1220.0,196.0,177.72,378.0,8.48,3.082,2600.0,
W264000077370001,308,Rajasthan,DHAULPUR,BARI,BARI1,26.645,77.611,2019,7.42,1050.0,0.0,437.0,130.0,55.0,50.0,0.15,348.0,80.0,36.08,135.0,3.5,0.96,683.0,
W263830077001501,309,Rajasthan,KARAULI,HINDAUN,GURLA1,26.642,77.004,2019,7.66,1120.0,0.0,303.0,145.0,125.0,170.0,0.34,530.0,120.0,56.07,87.0,1.4,0.38,728.0,
W263817075420701,310,Rajasthan,JAIPUR,PHAGI,Chittora,26.638,75.702,2019,8.38,2040.0,96.0,159.0,241.0,348.0,74.0,0.09,320.0,48.0,48.68,338.0,2.43,0.908,1326.0,
W263750071293001,311,Rajasthan,JAISALMER,SANKRA,BHAINSARA,26.631,71.492,2019,8.18,1910.0,0.0,439.0,276.0,63.0,180.0,0.25,360.0,104.0,24.44,275.0,7.0,1.5,1242.0,
W264045071341501,312,Rajasthan,JAISALMER,SANKRA,LUNA KALAN,26.623,71.571,2019,7.98,5630.0,0.0,586.0,794.0,316.0,1150.0,0.35,640.0,88.0,102.22,1000.0,40.0,2.46,3660.0,
W263720075364901,313,Rajasthan,JAIPUR,PHAGI,Bhojpura,26.622,75.614,2019,8.34,4180.0,120.0,671.0,255.0,928.0,28.0,0.028,300.0,40.0,48.67,831.0,3.09,0.852,2717.0,
W274930070293001,314,Rajasthan,JAISALMER,SAM,KURIA,26.619,70.487,2019,7.72,2420.0,0.0,366.0,567.0,100.0,18.0,5.15,150.0,32.0,17.06,490.0,11.0,0.05,1573.0,
W263645075531001,315,Rajasthan,JAIPUR,CHAKSU,THALLI,26.613,75.857,2019,8.29,3210.0,0.0,964.0,184.0,524.0,15.0,0.14,660.0,96.0,102.23,438.0,4.07,2.33,2087.0,
W263636075164001,316,Rajasthan,JAIPUR,DUDU,MANGARWARA,26.61,75.278,2019,7.6,15300.0,0.0,1525.0,2723.0,2400.0,68.0,0.015,1700.0,380.0,182.81,2311.0,723.0,1.755,9945.0,
W263630076430001,317,Rajasthan,KARAULI,NADOTI,SAHAR1,26.608,76.711,2019,7.57,5440.0,0.0,449.0,1074.0,950.0,294.0,0.1,1120.0,300.0,90.32,914.0,8.5,0.42,3536.0,
W263620075304501,318,Rajasthan,JAIPUR,PHAGI,Chakwara,26.606,75.513,2019,7.91,3000.0,0.0,366.0,567.0,374.0,10.0,0.061,720.0,120.0,102.26,358.0,6.88,2.304,1950.0,
W263607077283601,319,Rajasthan,DHAULPUR,BASERI,ANGAI,26.605,77.473,2019,7.86,590.0,0.0,315.0,52.0,57.0,23.0,0.08,298.0,68.0,31.2,43.0,16.8,0.64,384.0,
W263600075570001,320,Rajasthan,JAIPUR,CHAKSU,CHAKSU,26.6,75.95,2019,8.34,860.0,12.0,317.0,57.0,101.0,8.34,0.068,260.0,40.0,38.95,92.0,10.0,0.132,559.0,
W263600070420001,321,Rajasthan,JAISALMER,SAM,KHURI,26.6,70.7,2019,8.1,965.0,0.0,317.0,50.0,48.0,130.0,0.85,130.0,28.0,14.62,150.0,25.0,0.02,627.0,
W263540073523401,322,Rajasthan,NAGAUR,MERTA,Gathiya_Pz,26.594,73.837,2019,7.8,1750.0,0.0,500.0,269.0,40.0,85.0,0.0,400.0,56.0,63.28,230.0,4.0,1.1,1138.0,
W263533075270001,323,Rajasthan,JAIPUR,PHAGI,Choru,26.593,75.45,2019,8.05,3090.0,0.0,366.0,624.0,322.0,61.0,0.032,740.0,100.0,119.26,385.0,2.38,4.4,2009.0,
W250730073420001,324,Rajasthan,DHAULPUR,BARI,GAJPURA,26.579,77.691,2019,7.27,1770.0,0.0,339.0,372.0,160.0,38.0,0.09,358.0,92.0,31.23,294.0,7.5,1.59,1151.0,
W263438075392101,325,Rajasthan,JAIPUR,PHAGI,Madhorajpur,26.577,75.656,2019,8.4,3700.0,12.0,598.0,227.0,920.0,81.0,0.001,975.0,172.0,132.72,414.0,9.67,9.67,2405.0,
W263402075451501,326,Rajasthan,JAIPUR,PHAGI,DAWACH,26.567,75.754,2019,8.18,3570.0,0.0,830.0,440.0,504.0,14.0,0.021,1060.0,160.0,160.66,356.0,5.16,1.0,2321.0,
W263400073004201,327,Rajasthan,JODHPUR,TINWARI,Umaidnagar,26.567,73.012,2019,8.16,2900.0,0.0,573.0,631.0,45.0,75.0,0.05,290.0,44.0,43.82,545.0,6.0,5.0,1885.0,
W263300076334001,328,Rajasthan,SAWAI MADHOPUR,BAMANWAS,BAMNAWAS,26.55,76.561,2019,7.9,1640.0,0.0,472.0,277.0,35.0,20.0,0.05,290.0,60.0,34.11,250.0,3.2,0.7000000000000001,1066.0,
W263210077080001,329,Rajasthan,KARAULI,KARAULI,BHAUAPURA,26.542,77.182,2019,7.31,1210.0,0.0,449.0,187.0,55.0,23.0,0.74,340.0,68.0,41.42,171.0,5.0,1.1,787.0,
W263206073321401,331,Rajasthan,JODHPUR,PIPAR CITY,SARGIA KALLAN,26.535,73.538,2019,8.04,5030.0,0.0,519.0,1404.0,168.0,26.0,0.0,360.0,48.0,58.41,1030.0,4.3,1.1,3270.0,
W263200074150001,332,Rajasthan,NAGAUR,RIYAN BARI,RIAN,26.533,74.25,2019,8.76,1115.0,24.0,378.0,149.0,9.0,0.4,0.0,70.0,4.0,14.59,230.0,2.5,0.85,725.0,
W263130076510001,333,Rajasthan,SAWAI MADHOPUR,GANGAPUR,SEWA,26.525,76.837,2019,7.9,1810.0,0.0,727.0,157.0,30.0,75.0,0.09,200.0,44.0,21.94,330.0,1.2,2.1,1177.0,
W263120077231501,334,Rajasthan,DHAULPUR,BASERI,NAKATPURA,26.522,77.388,2019,8.35,3060.0,24.0,180.0,940.0,160.0,34.0,0.16,428.0,120.0,31.27,587.0,9.5,0.63,1989.0,
W211219082231101,335,Rajasthan,DAUSA,LALSOT,Lakhanpur,26.52,76.256,2019,7.81,1250.0,0.0,437.0,159.0,50.0,155.0,0.11,325.0,84.0,28.06,200.0,4.58,0.9,813.0,
W263037073224001,336,Rajasthan,JODHPUR,BHOPALGARH,DEVATRA,26.51,73.378,2019,7.84,4190.0,0.0,805.0,950.0,93.0,70.0,0.04,740.0,56.0,145.95,650.0,7.9,3.0,2724.0,
W263036073124301,337,Rajasthan,JODHPUR,BAORI,Gangani,26.51,73.212,2019,8.04,10000.0,0.0,976.0,2659.0,129.0,570.0,0.03,800.0,80.0,145.98,2000.0,8.4,5.0,6500.0,
W263022075393601,338,Rajasthan,JAIPUR,PHAGI,Chandama,26.506,75.66,2019,8.38,2040.0,96.0,159.0,241.0,348.0,74.0,0.09,320.0,48.0,48.68,338.0,2.43,0.908,1326.0,
W263021075362401,339,Rajasthan,JAIPUR,PHAGI,Parun,26.506,75.607,2019,7.72,4100.0,0.0,195.0,553.0,1018.0,102.0,0.048,1020.0,184.0,136.38,408.0,142.0,2.304,2665.0,
W263015076331001,340,Rajasthan,SAWAI MADHOPUR,BAMANWAS,PIPLAI,26.504,76.553,2019,8.5,3725.0,48.0,1204.0,412.0,330.0,22.0,0.08,300.0,80.0,24.41,790.0,1.8,3.5,2421.0,
W263014075304901,341,Rajasthan,JAIPUR,PHAGI,Nemeda,26.504,75.514,2019,8.32,710.0,12.0,183.0,57.0,115.0,11.0,0.054,300.0,40.0,48.67,39.0,1.15,0.767,462.0,
W263836074111601,342,Rajasthan,NAGAUR,RIYAN BARI,Bhawal_Pz,26.489,74.11,2019,8.15,3400.0,0.0,683.0,581.0,323.0,16.0,0.01,210.0,36.0,29.22,700.0,2.3,1.38,2210.0,
W262900076440001,343,Rajasthan,SAWAI MADHOPUR,GANGAPUR,GANGAPUR2,26.483,76.733,2019,7.85,5510.0,0.0,1179.0,1180.0,265.0,70.0,0.03,750.0,164.0,82.86,1020.0,2.3,0.75,3582.0,
W262900071163001,344,Rajasthan,JAISALMER,SAM,Kodiyasar,26.483,71.275,2019,8.4,2800.0,90.0,73.0,581.0,362.0,1.0,0.5,250.0,48.0,31.67,535.0,5.3,3.6,1820.0,
W262830073480001,345,Rajasthan,JODHPUR,PIPAR CITY,BORUNDA,26.475,73.8,2019,7.86,5050.0,0.0,342.0,1446.0,222.0,24.0,0.52,640.0,112.0,87.66,890.0,6.7,4.2,3283.0,
W262700075040001,346,Rajasthan,AJMER,ARAIN,ARIAN,26.45,75.067,2019,8.39,2080.0,120.0,475.0,212.0,178.0,5.902,0.017,440.0,64.0,68.15,278.0,32.0,1.666,1352.0,
W262538072284301,347,Rajasthan,JODHPUR,BALESAR,Kui Jodha,26.443,72.471,2019,7.4,560.0,0.0,144.0,102.0,65.0,25.0,0.07,160.0,55.0,5.54,90.0,1.0,1.2,364.0,
W262600076570001,348,Rajasthan,KARAULI,KARAULI,Mamachari,26.433,76.95,2019,8.06,530.0,0.0,352.0,31.0,120.0,17.0,0.1,300.0,78.0,25.62,79.0,3.0,1.4,340.0,
W262530076560001,349,Rajasthan,KARAULI,KARAULI,KARSAI,26.425,76.933,2019,8.5,1250.0,48.0,386.0,107.0,75.0,105.0,0.06,460.0,100.0,51.18,114.0,4.5,0.55,813.0,
W262504072553301,350,Rajasthan,JODHPUR,MANDOR,Narwa,26.418,72.926,2019,7.85,1650.0,0.0,366.0,319.0,92.0,40.0,0.01,330.0,60.0,43.84,252.0,5.4,2.0,1073.0,
W262447072495401,351,Rajasthan,JODHPUR,MANDOR,Salodi,26.413,72.849,2019,7.96,2036.0,0.0,305.0,454.0,82.0,51.0,0.05,360.0,64.0,48.7,300.0,6.8,1.3,1323.0,
W262330075291501,352,Rajasthan,TONK,MALPURA,JAISINGHPUR,26.409,75.498,2019,8.51,1780.0,108.0,415.0,121.0,168.0,19.0,0.075,340.0,40.0,58.4,251.0,2.86,1.76,1157.0,
W262350071554001,353,Rajasthan,JAISALMER,SANKRA,PHALSUND,26.408,71.928,2019,7.75,9550.0,0.0,244.0,2517.0,666.0,525.0,0.35,1450.0,280.0,182.69,1520.0,95.4,2.32,6208.0,
W262140072171001,354,Rajasthan,JODHPUR,SHERGARH,Nahar Singh Nagar,26.39,72.286,2019,8.0,5200.0,0.0,658.0,944.0,680.0,65.0,0.47,555.0,127.0,57.9,951.0,11.0,1.42,3380.0,
W262210073204501,355,Rajasthan,JODHPUR,PIPAR CITY,RAMRAWAS,26.369,73.38,2019,8.27,6360.0,0.0,830.0,1631.0,189.0,33.0,0.24,440.0,40.0,82.71,1275.0,3.8,4.5,4134.0,
W262200075560001,356,Rajasthan,TONK,NIWAI,NIWAI1,26.367,75.933,2019,8.25,1160.0,0.0,323.0,64.0,218.0,41.0,0.025,250.0,40.0,36.52,168.0,1.66,0.048,754.0,
W262115076151501,357,Rajasthan,SAWAI MADHOPUR,BONLI,BONALI,26.354,76.254,2019,8.23,2400.0,0.0,366.0,276.0,523.0,34.0,0.01,340.0,40.0,58.4,427.0,0.87,1.2,1560.0,
W262500075080001,358,Rajasthan,AJMER,ARAIN,DASUK,26.352,75.1,2019,8.18,510.0,0.0,159.0,71.0,62.0,0.8160000000000001,0.013,180.0,28.0,27.0,53.0,4.12,0.388,332.0,
W262100073023001,359,Rajasthan,JODHPUR,MANDOR,MANDORE1,26.35,73.042,2019,8.32,1815.0,30.0,427.0,227.0,148.0,110.0,0.0,440.0,116.0,36.61,190.0,89.0,0.92,1180.0,
W262018071332001,360,Rajasthan,BARMER,SHEO,GUJRO KA BERA,26.338,71.556,2019,8.38,2100.0,60.0,146.0,354.0,296.0,53.0,0.1,600.0,100.0,85.22,212.0,8.39,0.051,1365.0,
W262000072120001,361,Rajasthan,JODHPUR,SHERGARH,KUMARO KI DHANI,26.333,72.2,2019,8.46,3200.0,48.0,603.0,359.0,530.0,43.0,0.06,200.0,53.0,16.48,670.0,15.0,1.61,2080.0,
W262100074004501,363,Rajasthan,PALI,JAITARAN,BASSI1,26.329,74.063,2019,7.95,3590.0,0.0,927.0,602.0,151.0,23.0,0.01,320.0,44.0,51.11,680.0,3.0,5.9,2334.0,
W261945076293001,364,Rajasthan,SAWAI MADHOPUR,BAMANWAS,MORAL TIWARA,26.329,76.492,2019,8.35,1670.0,24.0,680.0,136.0,45.0,3.0,0.05,125.0,32.0,10.98,330.0,1.2,1.95,1086.0,
W252940075493001,365,Rajasthan,JODHPUR,SHERGARH,Rajwas,26.325,72.244,2019,8.4,3050.0,48.0,603.0,359.0,445.0,43.0,0.1,200.0,53.0,16.48,633.0,16.0,1.61,1983.0,
W262100076560001,366,Rajasthan,KARAULI,KARAULI,KELADEVI,26.325,76.933,2019,8.16,540.0,0.0,303.0,38.0,90.0,15.0,0.4,280.0,80.0,19.55,59.0,1.4,0.31,349.0,
W261900073251501,367,Rajasthan,JODHPUR,PIPAR CITY,BENAN,26.317,73.421,2019,7.58,12620.0,0.0,268.0,4112.0,546.0,110.0,0.65,2700.0,400.0,413.81,1825.0,13.0,2.0,8203.0,
W261820077145501,368,Rajasthan,KARAULI,MANDRAIL,MANDRAL,26.311,77.242,2019,7.54,655.0,0.0,242.0,60.0,102.0,36.0,0.45,270.0,75.0,20.15,68.0,3.5,0.06,425.0,
W261820076225001,369,Rajasthan,SAWAI MADHOPUR,BONLI,MALARNACHOR,26.306,76.381,2019,8.12,1900.0,0.0,293.0,177.0,464.0,24.0,0.01,220.0,24.0,38.93,357.0,2.43,1.07,1235.0,
W261800073020001,370,Rajasthan,JODHPUR,MANDOR,JODHPUR,26.3,73.033,2019,7.85,2440.0,0.0,342.0,425.0,110.0,325.0,0.02,700.0,120.0,97.4,256.0,6.0,2.5,1586.0,
W254510084062001,371,Rajasthan,AJMER,PEESANGAN,NASIRABAD,26.287,74.74,2019,8.26,1700.0,0.0,342.0,234.0,222.0,7.86,0.011,360.0,60.0,51.13,221.0,11.0,1.17,1105.0,
W261700075230001,372,Rajasthan,TONK,MALPURA,MALPURA1,26.283,75.383,2019,8.29,3280.0,0.0,476.0,425.0,605.0,72.0,0.005,640.0,100.0,94.94,479.0,2.54,0.091,2132.0,
W261654072375101,373,Rajasthan,JODHPUR,BALESAR,AGOLAI,26.282,72.631,2019,7.73,1220.0,0.0,254.0,230.0,125.0,41.0,0.13,320.0,99.0,17.75,174.0,5.0,1.27,793.0,
W261721076451801,374,Rajasthan,KARAULI,SAPOTRA,SAPOTRA1,26.279,76.77,2019,7.76,980.0,0.0,500.0,53.0,160.0,55.0,0.06,310.0,80.0,26.84,180.0,3.93,0.8200000000000001,637.0,
W261630072560001,375,Rajasthan,JODHPUR,MANDOR,CHOPASNI NATH,26.275,72.933,2019,7.52,1650.0,0.0,437.0,187.0,110.0,172.0,0.4,280.0,60.0,31.68,275.0,1.6,0.7000000000000001,1073.0,
W114404076064601,376,Rajasthan,JODHPUR,MANDOR,KARANI,26.272,72.825,2019,8.45,3350.0,72.0,596.0,648.0,185.0,77.0,0.06,150.0,35.0,15.24,752.0,4.0,3.23,2178.0,
W261600074500001,377,Rajasthan,AJMER,SHRINAGAR,RAMSAR2,26.267,74.858,2019,7.49,6280.0,0.0,366.0,1531.0,722.0,74.0,0.014,2040.0,320.0,301.87,546.0,37.0,0.665,4082.0,
W261600073170001,378,Rajasthan,JODHPUR,MANDOR,DANGIWAS,26.267,73.274,2019,7.98,2120.0,0.0,451.0,390.0,126.0,130.0,0.01,380.0,40.0,68.0,355.0,8.6,2.2,1378.0,
W261400076230001,379,Rajasthan,SAWAI MADHOPUR,BONLI,BHADOTI,26.253,76.386,2019,7.52,3000.0,0.0,305.0,326.0,720.0,62.0,0.002,900.0,100.0,158.16,279.0,7.21,0.86,1950.0,
W261430075510001,380,Rajasthan,TONK,TONK,SOHELA,26.242,75.85,2019,7.68,6450.0,0.0,390.0,1077.0,1328.0,49.0,0.041,2000.0,360.0,267.88,580.0,3.32,0.708,4193.0,
W261418075111501,381,Rajasthan,TONK,MALPURA,DEWAL1,26.238,75.188,2019,7.57,10770.0,0.0,512.0,1928.0,1528.0,802.0,0.011,1040.0,208.0,126.68,1426.0,968.0,0.241,7001.0,
W261400074293001,382,Rajasthan,AJMER,PEESANGAN,LAMANA,26.233,74.492,2019,8.09,720.0,0.0,134.0,78.0,168.0,0.996,0.001,240.0,36.0,36.51,71.0,4.37,0.334,468.0,
W261706073273001,383,Rajasthan,JODHPUR,BILARA,Olvi,26.233,73.458,2019,8.14,3900.0,0.0,634.0,922.0,78.0,70.0,0.06,330.0,36.0,58.4,750.0,4.0,2.5,2535.0,
W261304073185001,384,Rajasthan,JODHPUR,MANDOR,Bisalpur,26.233,73.314,2019,7.76,11120.0,0.0,378.0,2978.0,288.0,1150.0,0.68,1350.0,160.0,231.17,2000.0,36.2,2.0,7228.0,
W261330072543001,385,Rajasthan,JODHPUR,LUNI,BUJAWAR,26.225,72.908,2019,8.2,850.0,0.0,303.0,45.0,165.0,15.0,0.06,310.0,71.0,32.3,83.0,1.6,0.13,553.0,
W261310073373001,386,Rajasthan,JODHPUR,BILARA,BHAWI,26.219,73.625,2019,8.11,4670.0,0.0,915.0,865.0,331.0,194.0,0.02,200.0,40.0,24.0,1050.0,4.8,6.2,3036.0,
W261245075021001,387,Rajasthan,AJMER,ARAIN,Barora,26.213,75.036,2019,8.25,6200.0,0.0,903.0,744.0,1267.0,40.0,0.012,1100.0,176.0,160.68,925.0,28.0,1.052,4030.0,
W261120073023001,388,Rajasthan,JODHPUR,LUNI,KURI1,26.209,73.063,2019,7.56,3840.0,0.0,242.0,1045.0,305.0,34.0,0.21,510.0,120.0,51.2,695.0,6.0,2.35,2496.0,
W261212072291801,389,Rajasthan,BARMER,KALYANPUR,Thoombli,26.204,72.489,2019,7.93,6380.0,0.0,878.0,830.0,1145.0,300.0,0.02,280.0,40.0,43.81,1400.0,7.1,2.38,4147.0,
W261200073490001,390,Rajasthan,PALI,JAITARAN,PRITHIPURA,26.2,73.817,2019,8.0,6080.0,0.0,1342.0,695.0,912.0,50.0,0.01,320.0,36.0,56.0,1260.0,14.0,2.0,3952.0,
W261140072463001,391,Rajasthan,JODHPUR,LUNI,RARON KI DHANI,26.194,72.775,2019,8.1,10280.0,0.0,901.0,2786.0,625.0,337.0,0.66,770.0,200.0,65.89,2215.0,9.0,1.3,6682.0,
W260939071343001,392,Rajasthan,BARMER,BAYTOO,Jhak Pz,26.161,71.575,2019,8.06,3340.0,0.0,342.0,468.0,722.0,13.0,0.11,1220.0,184.0,185.0,217.0,11.0,1.054,2171.0,
W260915072561501,393,Rajasthan,JODHPUR,LUNI,NARNADI,26.154,72.926,2019,7.96,690.0,0.0,339.0,53.0,55.0,31.0,0.25,330.0,80.0,31.7,43.0,12.0,0.15,449.0,
W260930072494501,394,Rajasthan,JODHPUR,LUNI,KHUDALA,26.151,72.832,2019,8.54,6000.0,78.0,988.0,1234.0,370.0,60.0,0.01,180.0,32.0,24.35,1350.0,12.5,6.2,3900.0,
W261200071493001,395,Rajasthan,BARMER,GIRA,SAUPADAMSINGH,26.15,71.807,2019,8.13,3800.0,0.0,634.0,666.0,286.0,183.0,0.13,540.0,80.0,82.76,626.0,5.82,0.77,2470.0,
W260900073490001,396,Rajasthan,PALI,JAITARAN,NIMAJ,26.15,74.018,2019,8.37,968.0,18.0,281.0,163.0,2.0,15.0,0.01,60.0,4.0,12.0,210.0,2.0,1.25,629.0,
W260800074063001,397,Rajasthan,PALI,RAIPUR,HAJIWAS,26.133,74.101,2019,7.9,3425.0,0.0,720.0,652.0,129.0,70.0,0.06,380.0,68.0,51.14,610.0,6.0,4.5,2226.0,
W260745074554001,398,Rajasthan,AJMER,SARWAR,Goelo,26.129,74.928,2019,8.32,3000.0,120.0,822.0,227.0,316.0,7.761,0.012,680.0,80.0,116.8,394.0,3.94,3.478,1950.0,
W260200074210001,399,Rajasthan,AJMER,JAWAJA,MAIDAYABADAYA,26.12,74.37,2019,7.94,3350.0,0.0,622.0,581.0,350.0,3.86,0.011,900.0,104.0,155.73,359.0,17.0,1.194,2178.0,
W260700072580001,400,Rajasthan,JODHPUR,LUNI,MOGRA,26.117,73.033,2019,8.0,4200.0,0.0,327.0,1187.0,135.0,108.0,0.97,940.0,199.0,107.83,549.0,35.0,1.16,2730.0,
W260639075433001,401,Rajasthan,TONK,TONK,MANDIAWAS,26.111,75.725,2019,8.18,2518.0,0.0,464.0,383.0,336.0,21.0,0.03,500.0,48.0,92.45,364.0,2.8,1.179,1637.0,
W260530074304501,402,Rajasthan,AJMER,MASOODA,MASUDA1,26.092,74.513,2019,8.38,1540.0,48.0,195.0,284.0,154.0,10.0,0.001,490.0,80.0,70.61,139.0,16.0,0.071,1001.0,
W260600074250001,403,Rajasthan,AJMER,MASOODA,PAKHRIAWAS,26.088,74.399,2019,7.76,1970.0,0.0,305.0,312.0,310.0,6.08,0.011,630.0,104.0,90.09,179.0,5.29,2.54,1280.0,
W260400072400001,404,Rajasthan,BARMER,KALYANPUR,DOLI,26.067,72.667,2019,7.7,305.0,0.0,122.0,35.5,18.0,4.0,0.24,140.0,36.0,12.0,14.0,4.0,0.54,198.0,
W260330075483001,405,Rajasthan,TONK,TONK,ARNIYALMAL,26.058,75.808,2019,8.12,900.0,0.0,378.0,57.0,58.0,4.36,0.075,150.0,32.0,17.06,138.0,4.41,0.178,585.0,
W260330072443001,406,Rajasthan,JODHPUR,LUNI,DHAWA,26.058,72.742,2019,8.46,10430.0,84.0,878.0,2588.0,445.0,298.0,0.15,350.0,60.0,48.7,2250.0,16.8,18.0,6780.0,
W260300072213001,407,Rajasthan,BARMER,KALYANPUR,Thob,26.055,72.38,2019,7.5,3765.0,0.0,439.0,808.0,142.0,500.0,0.12,810.0,188.0,82.89,560.0,22.0,1.75,2447.0,
W260300075000001,408,Rajasthan,AJMER,SARWAR,SARWAD,26.05,75.0,2019,8.27,640.0,0.0,146.0,71.0,72.0,1.09,0.065,170.0,28.0,24.35,58.0,3.64,0.284,416.0,
W260300074170001,409,Rajasthan,AJMER,JAWAJA,NARBADKHERA,26.05,74.283,2019,8.09,2900.0,0.0,378.0,248.0,794.0,2.66,0.001,940.0,104.0,165.46,249.0,8.4,0.976,1885.0,
W260130074393001,411,Rajasthan,AJMER,BHINAY,JHOPADIYAN,26.025,74.658,2019,8.29,2020.0,0.0,403.0,277.0,312.0,2.41,0.002,230.0,40.0,31.66,375.0,6.44,1.26,1313.0,
W260050075292001,412,Rajasthan,TONK,TODARAISINGH,TODARAISINGH1,26.023,75.489,2019,8.19,1700.0,0.0,73.0,184.0,484.0,62.0,0.085,550.0,80.0,85.19,96.0,92.0,0.215,1105.0,
W260120076354001,413,Rajasthan,SAWAI MADHOPUR,KHANDAR,KHANDAR1,26.022,76.594,2019,7.56,2100.0,0.0,256.0,312.0,352.0,29.0,0.01,560.0,76.0,90.05,216.0,11.0,0.44,1365.0,
W260100076273001,414,Rajasthan,SAWAI MADHOPUR,SAWAI MADHOPUR,RANTHAMBOR,26.017,76.458,2019,7.9,1000.0,0.0,525.0,21.0,37.0,7.26,0.01,420.0,40.0,77.85,40.0,1.09,0.36,650.0,
W260053074014401,415,Rajasthan,PALI,RAIPUR,Haripur Rly Stn,26.015,74.029,2019,7.35,3850.0,0.0,427.0,723.0,36.0,640.0,0.01,1170.0,240.0,138.88,325.0,41.0,2.0,2516.0,
W225224069484201,416,Rajasthan,JODHPUR,LUNI,Luni,26.0,73.021,2019,7.88,450.0,0.0,217.0,45.0,32.0,11.0,0.29,220.0,83.0,3.14,31.0,0.7000000000000001,0.22,293.0,
W255955075410001,417,Rajasthan,TONK,TONK,MAHUVA,25.999,75.683,2019,7.85,2240.0,0.0,427.0,397.0,211.0,48.0,0.045,380.0,52.0,60.85,351.0,22.0,0.348,1456.0,
W255951071580301,418,Rajasthan,BARMER,GIRA,Santara,25.998,71.968,2019,8.22,4300.0,0.0,952.0,383.0,522.0,358.0,0.017,1080.0,200.0,141.26,415.0,141.0,1.76,2795.0,
W260145071464501,419,Rajasthan,BARMER,BAYTOO,PANAVADA,25.994,71.757,2019,7.95,18290.0,0.0,1220.0,5140.0,821.0,213.0,0.011,2700.0,240.0,510.87,2976.0,94.0,4.5,11889.0,
W255930070100001,420,Rajasthan,BARMER,GADRAROAD,PANCHLA,25.992,70.167,2019,8.42,7810.0,24.0,450.0,2250.0,555.0,22.0,0.25,800.0,180.0,85.31,1550.0,12.3,1.4,5077.0,
W255900075090001,421,Rajasthan,AJMER,KEKRI,KEKRI1,25.983,75.15,2019,8.25,1300.0,0.0,476.0,106.0,139.0,1.577,0.018,350.0,48.0,55.98,105.0,93.0,3.952,845.0,
W255830075575801,422,Rajasthan,TONK,UNIARA,DIKOLIYA,25.975,75.966,2019,7.96,2790.0,0.0,488.0,340.0,497.0,12.0,0.02,940.0,104.0,165.46,217.0,1.3,0.866,1814.0,
W255800076050001,423,Rajasthan,TONK,UNIARA,ALIGARH,25.967,76.078,2019,8.44,2565.0,96.0,439.0,142.0,580.0,9.22,0.95,580.0,108.0,75.5,346.0,1.53,0.378,1667.0,
W255633075105701,424,Rajasthan,AJMER,KEKRI,Nai Khera,25.943,75.183,2019,8.05,3380.0,0.0,781.0,525.0,326.0,3.056,0.175,660.0,46.0,132.56,494.0,3.83,5.14,2197.0,
W210152081254001,425,Rajasthan,SAWAI MADHOPUR,KHANDAR,BODAL,25.933,76.433,2019,7.95,1200.0,0.0,244.0,140.0,230.0,3.04,0.003,600.0,84.0,94.92,20.0,1.66,0.4,780.0,
W255600074120001,426,Rajasthan,AJMER,JAWAJA,JAWAJA1,25.933,74.2,2019,7.3,2340.0,0.0,698.0,227.0,252.0,2.433,0.011,260.0,28.0,46.23,408.0,18.0,3.913,1521.0,
W255430074120001,427,Rajasthan,AJMER,JAWAJA,BAGLIAS,25.908,74.2,2019,7.95,1810.0,0.0,329.0,248.0,280.0,6.373,0.06,520.0,72.0,82.75,181.0,6.36,0.665,1177.0,
W255400074410001,428,Rajasthan,BHILWARA,HURDA,GULABPURA,25.9,74.67,2019,7.64,12340.0,0.0,549.0,3191.0,1132.0,149.0,0.155,1950.0,280.0,304.25,1965.0,28.0,2.545,8021.0,
W255500076280001,429,Rajasthan,SAWAI MADHOPUR,KHANDAR,CHANN,25.896,76.489,2019,7.58,1600.0,0.0,354.0,128.0,264.0,69.0,0.002,200.0,36.0,26.79,262.0,27.0,0.74,1040.0,
W255000075140001,430,Rajasthan,AJMER,KEKRI,BOGLA,25.89,75.233,2019,8.38,1490.0,84.0,244.0,156.0,210.0,3.458,0.006,400.0,40.0,72.99,179.0,2.33,2.23,969.0,
W255430071143001,431,Rajasthan,BARMER,BARMER,BISALA,25.888,71.242,2019,8.24,5700.0,0.0,671.0,1205.0,528.0,119.0,0.025,850.0,120.0,133.87,920.0,40.0,1.289,3705.0,
W255300075340001,432,Rajasthan,TONK,DEOLI,BANTHOLI,25.883,75.567,2019,7.12,3980.0,0.0,464.0,560.0,732.0,141.0,0.001,960.0,112.0,165.47,479.0,36.0,0.22,2587.0,
W255300074090001,433,Rajasthan,AJMER,JAWAJA,TARAGARH,25.883,74.15,2019,8.06,2200.0,0.0,634.0,277.0,216.0,2.47,0.012,390.0,52.0,63.28,345.0,3.23,1.115,1430.0,
W255200074330001,434,Rajasthan,BHILWARA,HURDA,GAGEDA,25.867,74.55,2019,8.35,1750.0,60.0,134.0,187.0,427.0,2.055,0.004,300.0,48.0,43.82,281.0,17.0,2.716,1138.0,
W255150075165001,435,Rajasthan,TONK,DEOLI,RAMTHALA,25.864,75.281,2019,8.28,2670.0,0.0,317.0,248.0,712.0,6.44,0.002,330.0,56.0,46.26,469.0,7.4,0.12,1736.0,
W255200073283001,436,Rajasthan,PALI,SOJAT,KANAWAS,25.853,73.475,2019,8.08,3300.0,0.0,1171.0,425.0,42.0,55.0,0.02,320.0,44.0,51.11,620.0,2.0,8.2,2145.0,
W255100074080001,437,Rajasthan,RAJSAMAND,BHIM,Sheron Ka Bala,25.85,74.133,2019,7.83,880.0,0.0,317.0,92.0,58.0,31.0,0.01,290.0,64.0,31.68,85.0,5.0,1.55,572.0,
W255045070562001,438,Rajasthan,BARMER,GADRAROAD,REDANA,25.846,70.99,2019,7.81,3670.0,0.0,512.0,567.0,496.0,198.0,0.09,1200.0,180.0,182.57,284.0,63.89,0.427,2386.0,
W255000074170001,439,Rajasthan,BHILWARA,ASIND,BADNOR,25.833,74.283,2019,8.77,1390.0,48.0,134.0,198.0,222.0,26.0,0.014,280.0,36.0,46.24,180.0,43.0,0.49,904.0,
W255000074050001,440,Rajasthan,RAJSAMAND,BHIM,BALI1,25.833,74.083,2019,7.71,800.0,0.0,305.0,78.0,52.0,44.0,0.0,280.0,64.0,29.25,74.0,11.0,1.72,520.0,
W255000073381501,441,Rajasthan,PALI,SOJAT,KARIASODA,25.833,73.638,2019,8.4,2880.0,42.0,964.0,390.0,102.0,1.0,0.02,350.0,48.0,55.98,540.0,1.0,2.34,1872.0,
W254945072153001,442,Rajasthan,BARMER,BALOTRA,BALOTRA1,25.829,72.258,2019,8.11,6730.0,0.0,573.0,1574.0,835.0,6.0,0.01,300.0,40.0,48.67,1500.0,11.1,3.8,4275.0,
W254650072351501,443,Rajasthan,BARMER,SAMDARI,KARMAWAS,25.781,72.588,2019,7.88,3900.0,0.0,354.0,1056.0,312.0,23.0,0.01,680.0,192.0,48.86,660.0,7.6,0.62,2535.0,
W252245082253001,444,Rajasthan,PALI,PALI,PALI1,25.767,73.333,2019,7.16,4100.0,0.0,220.0,1007.0,398.0,62.0,0.011,1280.0,216.0,180.18,366.0,3.06,4.362,2665.0,
W254530074280001,445,Rajasthan,BHILWARA,ASIND,BARASNI,25.758,74.467,2019,8.15,1940.0,0.0,464.0,355.0,168.0,7.436,0.002,500.0,64.0,82.74,231.0,53.0,1.345,1261.0,
W254520074542001,446,Rajasthan,BHILWARA,SHAHPURA,KANCHAN-KALA,25.756,74.906,2019,7.38,770.0,0.0,268.0,78.0,106.0,2.59,0.001,270.0,32.0,46.23,75.0,11.0,0.734,501.0,
W254630071050001,447,Rajasthan,BARMER,RAMSAR,SIHANI,25.755,71.083,2019,7.89,2570.0,0.0,390.0,312.0,392.0,153.0,0.024,960.0,120.0,160.61,155.0,2.55,1.58,1671.0,
W254425070382001,448,Rajasthan,BARMER,GADRAROAD,GADRA ROAD,25.74,70.639,2019,8.42,3020.0,48.0,420.0,490.0,408.0,4.0,1.4,155.0,40.0,13.42,640.0,5.0,0.12,1963.0,
W254300072580001,449,Rajasthan,PALI,ROHAT,VAED,25.724,72.967,2019,7.69,7980.0,0.0,781.0,1702.0,629.0,409.0,0.11,1400.0,180.0,231.19,1038.0,290.0,0.738,5187.0,
W254315075211501,450,Rajasthan,BHILWARA,JAHAZPUR,AMARWASI,25.7,75.354,2019,7.52,1600.0,0.0,208.0,241.0,268.0,22.0,0.011,350.0,64.0,46.27,208.0,6.04,0.01,1040.0,
W254100075200001,451,Rajasthan,BHILWARA,JAHAZPUR,BORANI,25.683,75.333,2019,7.85,1820.0,0.0,488.0,199.0,212.0,39.0,0.001,370.0,60.0,53.56,258.0,7.01,0.473,1183.0,
W254041076283001,453,Rajasthan,KOTA,ITAWA,KHATOLI,25.678,76.475,2019,7.97,3990.0,0.0,598.0,744.0,830.0,89.0,0.001,740.0,100.0,119.26,798.0,3.51,0.607,2594.0,
W254040071132501,454,Rajasthan,BARMER,BARMER,PATRASAR,25.678,71.224,2019,7.75,1500.0,0.0,403.0,206.0,102.0,41.0,0.11,270.0,44.0,38.95,228.0,1.94,1.64,975.0,
W254000076110001,455,Rajasthan,BUNDI,KESHORAI PATAN,LAKHERI,25.667,76.183,2019,7.88,3100.0,0.0,329.0,638.0,158.0,302.0,0.105,860.0,176.0,102.33,303.0,49.0,0.206,2015.0,
W254000074010001,456,Rajasthan,RAJSAMAND,BHIM,BARAR,25.667,74.017,2019,7.6,1280.0,0.0,342.0,163.0,52.0,115.0,0.2,530.0,140.0,43.93,50.0,15.6,0.42,832.0,
W253800074360001,457,Rajasthan,BHILWARA,BANERA,RAILA ROAD,25.633,74.6,2019,7.81,2140.0,0.0,488.0,340.0,118.0,132.0,0.002,520.0,48.0,97.31,266.0,14.0,2.368,1391.0,
W253800074164501,458,Rajasthan,BHILWARA,ASIND,Daulatgarh,25.633,74.32,2019,7.91,1030.0,0.0,261.0,142.0,95.0,44.0,0.02,380.0,68.0,51.14,82.0,2.78,3.75,370.0,
W253715075163001,459,Rajasthan,BHILWARA,JAHAZPUR,JAHAJPUR,25.621,75.275,2019,8.24,2580.0,0.0,525.0,241.0,478.0,26.0,0.011,350.0,60.0,48.7,434.0,6.31,4.264,1679.0,
W253615074540001,460,Rajasthan,BHILWARA,SHAHPURA,SOPURA,25.604,74.9,2019,8.2,4800.0,0.0,744.0,546.0,948.0,32.0,0.002,720.0,84.0,124.1,773.0,7.84,1.1,3120.0,
W253600073560001,461,Rajasthan,RAJSAMAND,BHIM,THIKARWAS,25.6,73.98,2019,7.9,1210.0,0.0,488.0,156.0,20.0,9.7,0.04,220.0,40.0,29.22,196.0,6.0,1.65,787.0,
W253551074184801,462,Rajasthan,BHILWARA,ASIND,TILOLI,25.598,74.313,2019,7.7,2300.0,0.0,201.0,411.0,401.0,11.0,0.01,580.0,80.0,92.49,237.0,61.0,1.18,1495.0,
W253545071140001,463,Rajasthan,BARMER,CHOHTAN,SANLOR,25.586,71.233,2019,8.12,3750.0,0.0,549.0,319.0,859.0,110.0,0.11,1340.0,248.0,175.36,224.0,51.0,2.492,2438.0,
W253433076183601,464,Rajasthan,KOTA,ITAWA,GAINTA,25.576,76.31,2019,8.28,1240.0,0.0,420.0,70.0,185.0,18.0,0.02,440.0,24.0,92.42,99.0,2.58,0.643,806.0,
W253340074480001,465,Rajasthan,BHILWARA,SHAHPURA,Taswaria Khurd,25.561,74.8,2019,8.25,2040.0,0.0,403.0,170.0,358.0,127.0,0.001,580.0,72.0,97.34,193.0,41.0,0.352,1326.0,
W252300072530001,466,Rajasthan,JALORE,AHORE,NIMLA,25.531,72.866,2019,8.1,4970.0,0.0,390.0,1071.0,620.0,71.0,0.11,1280.0,204.0,187.46,529.0,83.0,0.139,3231.0,
W253140074180301,467,Rajasthan,BHILWARA,MANDAL,Dahimatha,25.528,74.301,2019,7.99,4600.0,0.0,366.0,850.0,776.0,34.0,0.003,1220.0,168.0,194.71,512.0,10.0,1.588,2990.0,
W253104075053001,468,Rajasthan,BHILWARA,KOTRI,PAROLI,25.518,75.092,2019,8.34,620.0,12.0,207.0,64.0,42.0,1.917,0.003,150.0,32.0,17.06,62.0,35.0,0.757,403.0,
W253100076100001,469,Rajasthan,BUNDI,KESHORAI PATAN,Dahi Khera,25.517,76.167,2019,8.0,9840.0,0.0,1183.0,2609.0,254.0,11.0,0.025,680.0,100.0,104.67,1950.0,7.89,0.739,6396.0,
W253040073514501,470,Rajasthan,RAJSAMAND,BHIM,BAGHANA,25.5,73.839,2019,6.91,1450.0,0.0,268.0,248.0,93.0,100.0,0.01,580.0,160.0,43.96,74.0,8.0,0.77,943.0,
W252945073153001,471,Rajasthan,PALI,RANI STATION,KIRWA,25.496,73.258,2019,8.35,2300.0,60.0,390.0,298.0,298.0,15.0,0.101,600.0,88.0,92.5,263.0,3.0,3.578,1495.0,
W252915074420001,472,Rajasthan,BHILWARA,BANERA,BANERAMATAJI,25.488,74.665,2019,8.24,670.0,0.0,268.0,71.0,41.0,1.932,0.004,290.0,56.0,36.54,27.0,15.0,0.044,436.0,
W252900071240001,473,Rajasthan,BARMER,BARMER,SANAWARA,25.48,71.4,2019,8.06,7350.0,0.0,281.0,1952.0,642.0,81.0,0.14,2150.0,360.0,304.35,716.0,11.0,0.016,4778.0,
W252830071040001,474,Rajasthan,BARMER,CHOHTAN,Chohtan,25.475,71.067,2019,8.02,3800.0,0.0,244.0,837.0,338.0,243.0,0.07,1700.0,264.0,253.18,91.0,28.0,0.508,2470.0,
W252815075520001,475,Rajasthan,BUNDI,BUNDI,DELUNDA,25.471,75.867,2019,8.1,5660.0,0.0,524.0,1517.0,218.0,73.0,0.105,340.0,56.0,48.69,1155.0,7.3,0.744,3679.0,
W252928075021201,476,Rajasthan,BHILWARA,KOTRI,Bhagwanpura,25.469,75.055,2019,7.64,3950.0,0.0,329.0,780.0,522.0,130.0,0.006,700.0,136.0,87.69,598.0,19.0,2.178,2568.0,
W252800072004501,477,Rajasthan,BARMER,SINDHARI,ARNIYALI,25.467,71.968,2019,7.81,13100.0,0.0,647.0,3900.0,606.0,95.0,0.021,2600.0,240.0,486.55,1900.0,7.73,0.014,8515.0,
W252715074111501,478,Rajasthan,BHILWARA,RAIPUR,NANGPURA,25.454,74.188,2019,7.94,2180.0,0.0,171.0,369.0,428.0,29.0,0.001,350.0,36.0,63.26,356.0,9.25,0.01,1417.0,
W252615076240001,479,Rajasthan,KOTA,ITAWA,KESHAVPURA,25.438,76.4,2019,8.07,2100.0,0.0,598.0,192.0,257.0,31.0,0.01,900.0,160.0,121.76,70.0,3.82,0.7030000000000001,1365.0,
W252820075331501,480,Rajasthan,BUNDI,HINDOLI,SATUR,25.437,75.515,2019,7.9,3400.0,0.0,439.0,822.0,168.0,28.0,0.108,720.0,116.0,104.69,389.0,121.0,0.91,2210.0,
W252500073490001,481,Rajasthan,RAJSAMAND,BHIM,DEWAIR,25.421,73.822,2019,8.0,900.0,0.0,451.0,43.0,33.0,2.5,0.13,280.0,44.0,41.39,83.0,7.4,0.97,585.0,
W252430075531501,482,Rajasthan,BUNDI,KESHORAI PATAN,MAIJA,25.408,75.888,2019,8.61,2800.0,12.0,671.0,425.0,201.0,52.0,0.11,140.0,16.0,24.33,588.0,4.8,1.15,1820.0,
W224800086564501,483,Rajasthan,BHILWARA,RAIPUR,Raipur,25.404,74.161,2019,7.54,6140.0,0.0,293.0,752.0,1654.0,39.0,0.003,1400.0,220.0,206.93,756.0,12.0,1.835,3991.0,
W252350074533001,484,Rajasthan,BHILWARA,KOTRI,KOTARI,25.397,74.892,2019,7.94,590.0,0.0,220.0,50.0,52.0,1.346,0.002,230.0,36.0,34.08,34.0,4.13,0.015,384.0,
W252328076042501,485,Rajasthan,BUNDI,KESHORAI PATAN,KAPREN,25.391,76.074,2019,8.44,1400.0,84.0,476.0,71.0,77.0,0.0,0.032,90.0,16.0,12.18,285.0,3.47,0.653,910.0,
W252327071593101,486,Rajasthan,JALORE,BHINMAL,Rangala,25.391,71.992,2019,8.04,7250.0,0.0,366.0,1772.0,991.0,88.0,0.014,2400.0,360.0,365.13,690.0,4.66,0.018,4713.0,
W252226074063001,487,Rajasthan,BHILWARA,RAIPUR,PITAKHERA,25.385,74.108,2019,8.15,1890.0,0.0,360.0,269.0,258.0,1.962,0.014,130.0,24.0,17.05,371.0,13.0,1.351,1229.0,
W252230074463001,488,Rajasthan,BHILWARA,SUWANA,KODUKOTA,25.371,74.775,2019,8.06,730.0,0.0,329.0,43.0,32.0,1.583,0.001,230.0,52.0,24.38,60.0,6.96,0.213,475.0,
W252200076180001,489,Rajasthan,KOTA,SULTANPUR,RATTANPURA,25.367,76.3,2019,8.12,1740.0,0.0,573.0,121.0,242.0,22.0,0.01,710.0,104.0,109.54,92.0,1.41,0.038,1131.0,
W252000072000001,490,Rajasthan,JALORE,BHINMAL,KHOKAGAON,25.359,72.031,2019,8.27,3690.0,0.0,586.0,709.0,370.0,19.0,0.011,900.0,160.0,121.76,452.0,3.19,1.345,2399.0,
W252100074420001,491,Rajasthan,BHILWARA,SUWANA,SUWANA1,25.35,74.7,2019,7.89,3500.0,0.0,427.0,418.0,750.0,27.0,0.001,900.0,104.0,155.73,391.0,7.38,4.71,2275.0,
W251905073483001,492,Rajasthan,RAJSAMAND,KUMBHALGARH,KITELA,25.341,73.781,2019,7.8,860.0,0.0,354.0,71.0,3.0,40.0,0.13,290.0,52.0,38.96,62.0,4.5,1.42,559.0,
W210730070063001,493,Rajasthan,BARAN,ANTAH,MANGROL,25.325,76.513,2019,7.15,605.0,0.0,171.0,57.0,121.0,4.69,0.006,140.0,32.0,14.63,93.0,9.34,0.523,393.0,
W251908075555001,494,Rajasthan,BUNDI,KESHORAI PATAN,KESHORAIPATAN,25.319,75.931,2019,7.91,4380.0,0.0,451.0,1205.0,126.0,3.2,0.11,880.0,120.0,141.16,607.0,4.96,0.799,2847.0,
W251855073105801,495,Rajasthan,PALI,SUMERPUR,SANDERAO,25.315,73.183,2019,8.26,2100.0,0.0,464.0,241.0,302.0,51.0,0.101,410.0,48.0,70.57,271.0,68.0,3.31,1365.0,
W251825074520001,496,Rajasthan,BHILWARA,KOTRI,SAWAIPUR,25.307,74.867,2019,8.06,615.0,0.0,171.0,85.0,58.0,3.432,0.013,180.0,36.0,21.93,61.0,11.0,0.031,400.0,
W251610074381501,497,Rajasthan,BHILWARA,SUWANA,MANDAPIA RS,25.269,74.638,2019,7.89,1660.0,0.0,427.0,213.0,172.0,49.0,0.002,340.0,56.0,48.69,241.0,4.9,0.02,1079.0,
W251557075545501,498,Rajasthan,KOTA,LADPURA,GUDLI,25.266,75.915,2019,8.08,1700.0,0.0,561.0,106.0,210.0,32.0,0.01,720.0,96.0,116.82,63.0,0.76,0.8320000000000001,1105.0,
W251500077080001,499,Rajasthan,BARAN,SHAHBAD,SHAHABAD1,25.25,77.133,2019,7.7,1400.0,0.0,354.0,43.0,328.0,15.0,0.014,510.0,72.0,80.32,52.0,65.0,0.632,910.0,
W251440075023001,500,Rajasthan,BHILWARA,MANDALGARH,BIGOD,25.244,75.03,2019,7.93,890.0,0.0,293.0,71.0,116.0,41.0,0.004,390.0,88.0,41.44,48.0,2.38,0.733,579.0,
W251430076052001,501,Rajasthan,KOTA,SULTANPUR,DIGOD1,25.242,76.089,2019,8.14,2000.0,0.0,500.0,128.0,418.0,3.82,0.01,630.0,92.0,97.36,183.0,3.13,0.716,1300.0,
W251520073560001,502,Rajasthan,RAJSAMAND,AMET,CHATTARPUR,25.241,73.956,2019,7.87,4090.0,0.0,464.0,964.0,526.0,6.7,0.03,850.0,108.0,141.15,660.0,9.7,0.8,2659.0,
W251435073470001,503,Rajasthan,RAJSAMAND,KUMBHALGARH,MANSINGH KAGURA,25.238,73.789,2019,7.69,1512.0,0.0,354.0,220.0,87.0,130.0,0.32,470.0,80.0,65.74,148.0,8.0,2.1,983.0,
W251400073530001,504,Rajasthan,RAJSAMAND,AMET,GUGLI,25.233,73.883,2019,7.84,2370.0,0.0,317.0,482.0,240.0,5.4,0.0,500.0,96.0,63.33,310.0,20.4,1.42,1541.0,
W251345073094501,505,Rajasthan,PALI,SUMERPUR,NIMBORNATH,25.229,73.163,2019,8.17,900.0,0.0,366.0,50.0,68.0,17.0,0.32,370.0,64.0,51.14,36.0,10.0,1.92,585.0,
W251339075501601,506,Rajasthan,KOTA,LADPURA,GIRDHARPURA,25.223,75.829,2019,8.16,820.0,0.0,244.0,99.0,76.0,8.42,0.001,350.0,24.0,70.54,33.0,3.97,0.335,533.0,
W251322074253001,507,Rajasthan,BHILWARA,SUWANA,Karoi Kalan,25.223,74.425,2019,7.3,3520.0,0.0,220.0,695.0,393.0,289.0,0.002,1280.0,184.0,199.0,231.0,18.0,1.105,2288.0,
W251300074153501,508,Rajasthan,BHILWARA,SAHARA,GANGAPUR1,25.217,74.26,2019,8.45,1290.0,72.0,98.0,121.0,212.0,91.0,0.02,260.0,32.0,43.8,188.0,5.27,1.811,839.0,
W251230077213001,509,Rajasthan,BARAN,SHAHBAD,Kasba Thana,25.208,77.358,2019,7.54,1800.0,0.0,250.0,142.0,472.0,22.0,0.06,720.0,100.0,114.39,87.0,8.42,0.121,1170.0,
W251012072381601,510,Rajasthan,JALORE,JALORE,Digaon,25.203,72.663,2019,7.71,3740.0,0.0,342.0,851.0,368.0,11.0,0.01,920.0,168.0,121.77,437.0,3.01,0.01,2431.0,
W251200073520001,511,Rajasthan,RAJSAMAND,RAJSAMAND,NADIAWALA,25.203,73.863,2019,7.4,4750.0,0.0,220.0,1156.0,132.0,524.0,0.26,1810.0,396.0,199.85,255.0,10.0,1.77,3088.0,
W251141072255101,512,Rajasthan,JALORE,JASWANTPURA,Serena,25.203,72.431,2019,8.12,3880.0,0.0,488.0,836.0,364.0,5.4,0.04,1100.0,200.0,146.12,398.0,4.58,2.01,2552.0,
W251143074173901,513,Rajasthan,BHILWARA,SAHARA,Galodiya,25.195,74.294,2019,8.37,2850.0,84.0,695.0,439.0,120.0,3.908,0.34,400.0,56.0,63.28,489.0,8.92,4.99,1853.0,
W251116077062001,514,Rajasthan,BARAN,SHAHBAD,MAMONI,25.188,77.106,2019,8.08,490.0,0.0,195.0,21.0,58.0,14.0,0.014,220.0,48.0,24.37,19.0,1.38,0.194,319.0,
W251100075510001,515,Rajasthan,KOTA,LADPURA,KOTA1,25.183,75.85,2019,8.25,670.0,0.0,183.0,68.0,124.0,2.02,0.01,340.0,40.0,58.4,15.0,5.8100000000000005,0.099,436.0,
W251700075053801,516,Rajasthan,BHILWARA,MANDALGARH,MANDALGARH1,25.183,75.094,2019,7.88,640.0,0.0,195.0,35.0,134.0,1.006,0.001,270.0,44.0,38.95,36.0,2.03,0.014,416.0,
W251100073173001,517,Rajasthan,PALI,BALI,RADAWAS,25.183,73.292,2019,8.1,970.0,0.0,354.0,71.0,96.0,9.23,2.28,280.0,24.0,53.52,100.0,3.46,1.45,631.0,
W251050074345001,518,Rajasthan,BHILWARA,SUWANA,HAMIRGARH,25.181,74.63,2019,8.13,1520.0,0.0,256.0,191.0,288.0,21.0,0.011,380.0,44.0,65.7,194.0,6.24,1.475,988.0,
W234700074280002,519,Rajasthan,PALI,DESURI,SADRI,25.179,73.463,2019,7.8,800.0,0.0,281.0,50.0,94.0,38.0,0.26,390.0,64.0,56.0,20.0,3.02,1.44,520.0,
W251012075192201,520,Rajasthan,BHILWARA,BIJOLIYAN,BIJOLIA,25.17,75.323,2019,7.89,980.0,0.0,268.0,142.0,98.0,29.0,0.025,330.0,80.0,31.7,95.0,8.5,0.441,637.0,
W250930076180001,521,Rajasthan,BARAN,ANTAH,ANTA1,25.158,76.3,2019,7.62,1200.0,0.0,244.0,71.0,301.0,10.0,0.01,450.0,68.0,68.16,79.0,0.167,0.167,780.0,
W250930073120001,522,Rajasthan,PALI,BALI,PERWA,25.158,73.216,2019,8.4,1100.0,72.0,195.0,78.0,152.0,19.0,0.0,320.0,36.0,55.96,114.0,6.28,3.325,715.0,
W250915075071701,523,Rajasthan,BHILWARA,MANDALGARH,Ladpura,25.154,75.121,2019,7.71,520.0,0.0,183.0,43.0,67.0,26.0,0.002,260.0,60.0,26.82,19.0,2.33,0.221,338.0,
W250811074531501,524,Rajasthan,CHITTAURGARH,BEGUN,PARSOLI,25.136,74.888,2019,7.76,520.0,0.0,122.0,71.0,56.0,26.0,0.002,230.0,64.0,17.1,25.0,1.04,1.069,338.0,
W250800073510001,525,Rajasthan,RAJSAMAND,RAJSAMAND,MOKAMPURA,25.131,73.85,2019,8.0,1890.0,0.0,195.0,355.0,233.0,46.0,0.01,370.0,36.0,68.12,260.0,7.8,1.62,1229.0,
W250720071352001,526,Rajasthan,BARMER,DHORIMANNA,PIPARLI GAON,25.122,71.589,2019,8.1,3690.0,0.0,220.0,879.0,362.0,146.0,0.1,1320.0,220.0,187.48,265.0,17.0,0.016,2399.0,
W250716075575601,527,Rajasthan,KOTA,LADPURA,KHERARASULPUR,25.121,75.966,2019,8.05,1900.0,0.0,525.0,163.0,264.0,32.0,0.002,760.0,108.0,119.27,92.0,3.14,0.139,1235.0,
W250800073280001,528,Rajasthan,PALI,DESURI,RANAKPUR,25.116,73.473,2019,7.78,1000.0,0.0,305.0,121.0,104.0,0.718,0.01,410.0,56.0,65.71,52.0,8.97,1.4,650.0,
W250651073093101,529,Rajasthan,PALI,SUMERPUR,Balwana,25.114,73.159,2019,8.18,900.0,0.0,329.0,78.0,76.0,11.0,0.0,400.0,88.0,43.87,34.0,0.5700000000000001,1.98,585.0,
W250650075154001,530,Rajasthan,BHILWARA,BIJOLIYAN,SALAWATIA,25.114,75.261,2019,8.21,960.0,0.0,109.0,128.0,252.0,13.0,0.012,250.0,40.0,36.52,132.0,5.27,0.012,624.0,
W250630076380001,531,Rajasthan,BARAN,KISHANGANJ,KISHANGANJ1,25.108,76.65,2019,7.74,860.0,0.0,244.0,43.0,182.0,17.0,0.001,360.0,48.0,58.41,48.0,2.39,0.436,559.0,
W250600073364801,533,Rajasthan,RAJSAMAND,KUMBHALGARH,KELWARA,25.1,73.613,2019,7.62,1550.0,0.0,464.0,177.0,86.0,140.0,0.1,530.0,116.0,58.49,108.0,54.0,0.15,1008.0,
W250600073360001,534,Rajasthan,RAJSAMAND,KUMBHALGARH,KALWANA,25.1,73.6,2019,7.77,800.0,0.0,317.0,71.0,52.0,17.5,0.02,290.0,64.0,31.68,63.0,3.5,0.72,520.0,
W250800072580001,535,Rajasthan,SIROHI,SHEOGANJ,Posaliya,25.085,72.967,2019,8.04,480.0,0.0,110.0,43.0,82.0,7.77,0.17,200.0,48.0,19.51,20.0,1.79,1.08,312.0,
W250440075100001,536,Rajasthan,CHITTAURGARH,BEGUN,MENAL,25.078,75.167,2019,7.87,570.0,0.0,183.0,57.0,71.0,0.669,0.001,180.0,28.0,26.78,53.0,8.67,0.17,371.0,
W250400074214501,537,Rajasthan,CHITTAURGARH,RASHMI,RASHMI1,25.067,74.363,2019,7.9,3180.0,0.0,464.0,666.0,254.0,75.0,0.012,420.0,68.0,60.87,560.0,8.6,1.197,2067.0,
W250400073530001,538,Rajasthan,RAJSAMAND,RAJSAMAND,RAJSAMAND,25.067,73.883,2019,7.97,1760.0,0.0,512.0,241.0,49.0,90.0,0.05,510.0,72.0,80.32,170.0,7.4,1.62,1144.0,
W250313072204601,539,Rajasthan,JALORE,BHINMAL,Ledarmer,25.054,72.346,2019,7.85,6400.0,0.0,439.0,1774.0,295.0,39.0,0.01,1750.0,240.0,279.89,667.0,2.8200000000000003,0.726,4160.0,
W250300074380001,540,Rajasthan,CHITTAURGARH,GANGRAR,GANGRAR1,25.05,74.633,2019,7.55,1450.0,0.0,305.0,213.0,112.0,105.0,0.004,440.0,72.0,63.3,144.0,1.95,0.991,943.0,
W250500073340001,541,Rajasthan,RAJSAMAND,KUMBHALGARH,DOWAS,25.039,73.567,2019,7.97,760.0,0.0,366.0,50.0,17.0,3.8,0.0,230.0,44.0,29.23,70.0,8.2,0.5,494.0,
W250210074293001,542,Rajasthan,CHITTAURGARH,GANGRAR,KHARKHANDA,25.036,74.492,2019,8.22,1190.0,0.0,403.0,142.0,82.0,23.0,0.013,260.0,44.0,36.52,172.0,6.37,1.45,774.0,
W250200074070001,543,Rajasthan,RAJSAMAND,RAILMAGRA,RAILMAGRA1,25.033,74.117,2019,8.03,2000.0,0.0,573.0,291.0,96.0,55.0,0.12,410.0,44.0,72.99,282.0,5.5,1.62,1300.0,
W250200074010001,544,Rajasthan,RAJSAMAND,RAILMAGRA,ODA1,25.033,74.004,2019,8.42,1500.0,42.0,500.0,184.0,70.0,13.0,0.06,190.0,24.0,31.64,294.0,6.7,5.0,975.0,
W250115075420001,545,Rajasthan,KOTA,LADPURA,BORAWAS,25.021,75.7,2019,8.2,1070.0,0.0,293.0,106.0,139.0,30.0,0.02,450.0,68.0,68.16,39.0,21.0,0.346,696.0,
W250045072154501,546,Rajasthan,JALORE,BHINMAL,BHINMAL1,25.013,72.263,2019,8.2,7990.0,0.0,659.0,1347.0,1400.0,159.0,0.75,2300.0,240.0,413.62,793.0,12.0,3.7,5194.0,
W245943072430001,547,Rajasthan,SIROHI,SIROHI,BARLOT,24.995,72.717,2019,7.77,1250.0,0.0,305.0,199.0,92.0,16.0,0.07,300.0,72.0,29.26,156.0,2.05,0.335,813.0,
W245930076283001,548,Rajasthan,BARAN,BARAN,BAMLA,24.992,76.475,2019,7.61,2500.0,0.0,397.0,106.0,468.0,120.0,0.005,560.0,80.0,87.62,181.0,86.0,0.066,1625.0,
W245830072360001,549,Rajasthan,JALORE,JASWANTPURA,PUNAK KALAN,24.975,72.575,2019,8.18,2100.0,0.0,488.0,227.0,323.0,33.0,0.12,430.0,68.0,63.3,254.0,84.0,1.669,1365.0,
W245800073330001,550,Rajasthan,RAJSAMAND,KUMBHALGARH,KANCHOLI,24.96,73.55,2019,7.87,1190.0,0.0,439.0,149.0,34.5,5.8,0.04,290.0,52.0,38.96,146.0,5.0,0.77,774.0,
W245720072533001,551,Rajasthan,SIROHI,SHEOGANJ,AMBESHWARJI,24.956,72.892,2019,8.01,1920.0,0.0,439.0,347.0,117.0,25.0,0.03,370.0,64.0,51.14,287.0,6.0,2.212,1248.0,
W245700074420001,552,Rajasthan,CHITTAURGARH,CHITTAURGARH,NAGARI1,24.95,74.685,2019,7.88,1100.0,0.0,329.0,121.0,105.0,23.0,0.017,200.0,52.0,17.08,168.0,4.04,0.152,715.0,
W245630071243001,553,Rajasthan,JALORE,CHITALWANA,DOONGRI,24.942,71.408,2019,8.13,4970.0,0.0,488.0,766.0,798.0,264.0,0.05,1340.0,200.0,204.47,544.0,1.339,1.339,3231.0,
W245600075560001,554,Rajasthan,KOTA,LADPURA,MANDANA,24.933,75.933,2019,8.01,1000.0,0.0,268.0,78.0,140.0,37.0,0.01,420.0,56.0,68.14,39.0,1.5,0.361,650.0,
W245600075353001,555,Rajasthan,CHITTAURGARH,BHAINSRORGARH,RAWATBHATA,24.933,75.592,2019,7.63,500.0,0.0,159.0,14.0,104.0,0.0,0.01,170.0,36.0,19.49,39.0,5.08,0.338,325.0,
W203455081524001,556,Rajasthan,CHITTAURGARH,KAPASAN,SINGHPUR,24.933,74.456,2019,8.14,880.0,0.0,195.0,64.0,172.0,50.0,0.014,220.0,28.0,36.5,112.0,6.7,0.059,572.0,
W245530072411501,557,Rajasthan,SIROHI,SIROHI,KALANDRI,24.925,72.688,2019,8.09,5800.0,0.0,476.0,1240.0,638.0,162.0,0.03,1950.0,280.0,304.25,436.0,30.0,0.035,3770.0,
W245520071090001,558,Rajasthan,BARMER,SERWA,SIHANIYA,24.922,71.15,2019,7.79,5200.0,0.0,366.0,1177.0,574.0,135.0,0.06,1450.0,180.0,243.35,554.0,12.8,1.012,3380.0,
W245500073440001,559,Rajasthan,RAJSAMAND,KHAMNOR,KHAMNOR1,24.917,73.733,2019,8.03,670.0,0.0,256.0,64.0,40.0,5.1,0.0,210.0,32.0,31.65,54.0,17.0,0.6900000000000001,436.0,
W245430075584001,560,Rajasthan,KOTA,LADPURA,DARA,24.908,75.978,2019,8.04,900.0,0.0,268.0,50.0,148.0,0.305,0.02,210.0,16.0,41.35,109.0,1.49,0.345,585.0,
W245420074384001,561,Rajasthan,CHITTAURGARH,CHITTAURGARH,MANPURA2,24.906,74.644,2019,7.83,1550.0,0.0,232.0,291.0,78.0,35.0,0.017,290.0,52.0,38.96,187.0,12.0,0.354,874.0,
W245400073490001,562,Rajasthan,RAJSAMAND,KHAMNOR,ODAN,24.9,73.817,2019,7.91,1580.0,0.0,439.0,262.0,76.0,80.0,0.03,460.0,76.0,65.74,186.0,10.8,1.17,1027.0,
W245000073320001,563,Rajasthan,UDAIPUR,SAYRA,KATHAR1,24.89,73.57,2019,7.89,1280.0,0.0,476.0,142.0,51.0,1.0,0.01,380.0,56.0,58.42,120.0,5.2,0.8200000000000001,832.0,
W245300072520001,564,Rajasthan,SIROHI,SIROHI,SIROHI,24.883,72.867,2019,7.4,980.0,0.0,281.0,92.0,112.0,26.0,0.33,240.0,44.0,31.66,117.0,6.38,0.623,637.0,
W245130073254501,565,Rajasthan,UDAIPUR,SAYRA,PUNAWALI,24.878,73.429,2019,7.65,1450.0,0.0,427.0,170.0,37.0,140.0,0.25,540.0,44.0,104.6,66.0,49.0,1.25,943.0,
W245140074183001,566,Rajasthan,CHITTAURGARH,KAPASAN,KAPASAN1,24.861,74.308,2019,7.89,1880.0,0.0,427.0,248.0,228.0,45.0,0.001,630.0,104.0,90.09,148.0,19.0,0.794,1222.0,
W245315076394001,567,Rajasthan,BARAN,ATRU,ATRU1,24.858,76.661,2019,7.58,1700.0,0.0,366.0,128.0,348.0,5.51,0.003,390.0,52.0,63.28,189.0,40.0,0.303,1105.0,
W245100074352001,568,Rajasthan,CHITTAURGARH,CHITTAURGARH,Bojunda,24.85,74.589,2019,7.87,1080.0,0.0,403.0,85.0,62.0,11.0,0.014,260.0,40.0,38.95,122.0,1.91,0.99,702.0,
W245045072591501,569,Rajasthan,SIROHI,PINDWARA,VIRWARA,24.841,72.988,2019,7.87,7200.0,0.0,220.0,539.0,352.0,91.0,0.01,1200.0,200.0,170.44,84.0,2.94,0.631,4680.0,
W245300071130001,570,Rajasthan,BARMER,SERWA,TARLA,24.836,71.217,2019,8.06,2500.0,0.0,244.0,255.0,452.0,270.0,0.17,940.0,164.0,129.06,71.0,123.0,0.44,1625.0,
W244800073280001,571,Rajasthan,UDAIPUR,GOGUNDA,JASWANTGARH,24.8,73.468,2019,7.68,1100.0,0.0,317.0,170.0,10.0,53.0,0.08,380.0,80.0,43.86,76.0,8.2,0.65,715.0,
W244700073590001,572,Rajasthan,UDAIPUR,MAVLI,MAVLI1,24.783,73.983,2019,7.91,960.0,0.0,415.0,99.0,51.0,3.4,0.02,230.0,44.0,29.23,142.0,0.0,0.5700000000000001,624.0,
W244700073280001,573,Rajasthan,UDAIPUR,BARGAON,SRIMALI KI KARIA,24.776,73.633,2019,8.02,697.0,0.0,305.0,64.0,21.0,0.08,0.02,190.0,40.0,21.93,80.0,1.4,1.0,453.0,
W244336074270001,574,Rajasthan,CHITTAURGARH,BHADESAR,BANSEN,24.727,74.45,2019,7.45,1550.0,0.0,329.0,213.0,158.0,82.0,0.001,590.0,92.0,87.64,97.0,4.17,1.03,1008.0,
W244100074210001,575,Rajasthan,CHITTAURGARH,BHADESAR,NAPANIA,24.683,74.35,2019,8.05,760.0,0.0,244.0,64.0,120.0,18.0,0.011,200.0,32.0,29.21,105.0,2.53,0.264,494.0,
W244030072403001,576,Rajasthan,SIROHI,REODAR,GULABGANJ,24.675,72.675,2019,8.08,3200.0,0.0,268.0,539.0,578.0,43.0,0.05,1280.0,272.0,146.21,92.0,111.0,1.317,2080.0,
W243400076100001,577,Rajasthan,JHALAWAR,KHANPUR,GAGRON,24.661,76.189,2019,7.75,790.0,0.0,183.0,78.0,129.0,52.0,0.008,350.0,72.0,41.42,39.0,2.6,0.359,514.0,
W243930072561001,578,Rajasthan,SIROHI,PINDWARA,SARUPGANJ,24.658,72.936,2019,7.5,2580.0,0.0,610.0,355.0,240.0,62.0,0.04,740.0,104.0,116.83,258.0,5.87,1.856,1677.0,
W243805072293001,579,Rajasthan,SIROHI,REODAR,JIRAWAL,24.639,72.492,2019,7.82,890.0,0.0,244.0,43.0,148.0,38.0,0.02,400.0,52.0,65.71,23.0,1.09,0.883,579.0,
W243730073410001,580,Rajasthan,UDAIPUR,GIRWA,Ramgiri(badagaon),24.625,73.683,2019,7.9,1080.0,0.0,451.0,121.0,59.0,33.0,0.1,360.0,56.0,53.56,120.0,10.3,1.85,702.0,
W243700074010001,581,Rajasthan,UDAIPUR,BHINDAR,BHATEWAR,24.617,74.013,2019,7.86,680.0,0.0,317.0,50.0,28.0,0.4,0.01,190.0,32.0,26.78,72.0,12.0,0.35,442.0,
W243500076090001,582,Rajasthan,JHALAWAR,JHALRAPATAN,JHALAWAR,24.616,76.176,2019,7.98,1500.0,0.0,342.0,113.0,106.0,10.0,0.013,350.0,40.0,60.83,96.0,3.75,0.254,975.0,
W243738073233301,583,Rajasthan,UDAIPUR,GOGUNDA,PADAWALI,24.613,73.393,2019,7.68,1230.0,0.0,293.0,156.0,77.0,100.0,0.05,480.0,84.0,65.75,62.0,7.0,0.7000000000000001,800.0,
W243420076144501,584,Rajasthan,JHALAWAR,KHANPUR,MANDAWAR1,24.598,76.258,2019,7.88,3460.0,0.0,427.0,638.0,475.0,20.0,0.012,210.0,36.0,29.22,674.0,69.0,0.133,2249.0,
W243348073392501,585,Rajasthan,UDAIPUR,GIRWA,Sisarma,24.591,73.659,2019,8.05,1400.0,0.0,525.0,142.0,77.0,0.4,0.03,400.0,32.0,77.84,136.0,15.5,1.3,910.0,
W243320074120301,586,Rajasthan,UDAIPUR,BHINDAR,KHERODA,24.58,74.059,2019,7.88,1050.0,0.0,464.0,43.0,8.0,110.0,0.0,370.0,48.0,60.84,76.0,3.4,0.5,683.0,
W243440073463501,587,Rajasthan,UDAIPUR,GIRWA,KANPUR,24.57,73.776,2019,7.7,1740.0,0.0,403.0,305.0,80.0,32.0,0.01,500.0,92.0,65.76,160.0,18.4,0.6000000000000001,1131.0,
W243430074100001,588,Rajasthan,UDAIPUR,BHINDAR,BHINDER,24.506,74.167,2019,7.84,1600.0,0.0,586.0,170.0,55.0,65.0,0.6000000000000001,380.0,96.0,34.16,165.0,73.0,0.42,1040.0,
W235100073464501,589,Rajasthan,SIROHI,ABU ROAD,Manpur2,24.504,72.759,2019,8.1,1970.0,0.0,317.0,404.0,122.0,67.0,0.02,480.0,92.0,60.89,244.0,2.63,0.668,1281.0,
W164652073591001,590,Rajasthan,UDAIPUR,GIRWA,UNDRI,24.496,73.613,2019,7.93,988.0,0.0,305.0,128.0,46.0,27.0,0.03,240.0,44.0,31.66,120.0,1.0,0.65,642.0,
W242915076181001,591,Rajasthan,JHALAWAR,JHALRAPATAN,AKTASA,24.488,76.303,2019,7.32,5680.0,0.0,281.0,1297.0,773.0,2.399,0.017,1720.0,360.0,199.81,511.0,30.0,0.148,3692.0,
W242900076360001,592,Rajasthan,BARAN,CHHIPABAROD,SARTHAL,24.483,76.6,2019,7.87,1160.0,0.0,281.0,43.0,278.0,26.0,0.013,390.0,51.0,63.88,98.0,1.66,0.184,754.0,
W242900075583001,593,Rajasthan,JHALAWAR,BHAWANI MANDI,GANESHPURA,24.483,75.96,2019,7.04,570.0,0.0,159.0,57.0,94.0,0.777,0.004,150.0,24.0,21.91,73.0,3.3,0.276,371.0,
W242900072410001,594,Rajasthan,SIROHI,ABU ROAD,Mungthalla,24.483,72.683,2019,7.69,1300.0,0.0,378.0,113.0,144.0,60.0,0.09,500.0,76.0,75.46,77.0,2.18,0.757,845.0,
W242654073593001,595,Rajasthan,UDAIPUR,KURAWAR,KURABAR,24.448,73.992,2019,7.59,2200.0,0.0,525.0,425.0,33.0,105.0,0.0,600.0,176.0,39.12,250.0,6.2,0.41,1430.0,
W242800076120001,596,Rajasthan,JHALAWAR,JHALRAPATAN,Nahardi,24.447,76.2,2019,8.17,840.0,0.0,238.0,71.0,148.0,14.0,0.031,280.0,40.0,43.81,79.0,11.0,0.29,546.0,
W242630075545501,597,Rajasthan,JHALAWAR,BHAWANI MANDI,ANVLIKALAN,24.442,75.915,2019,8.14,570.0,0.0,171.0,64.0,86.0,0.727,0.012,140.0,20.0,21.91,83.0,2.91,0.28,371.0,
W242610076420001,598,Rajasthan,BARAN,CHHIPABAROD,HARNAUDA,24.436,76.7,2019,7.61,1050.0,0.0,220.0,71.0,206.0,44.0,0.007,390.0,68.0,53.57,65.0,0.12,0.094,683.0,
W242600076223001,599,Rajasthan,JHALAWAR,JHALRAPATAN,DOONGARGAON,24.433,76.375,2019,7.85,480.0,0.0,122.0,14.0,132.0,4.303,0.007,220.0,40.0,29.22,19.0,0.88,0.377,312.0,
W242600074160001,600,Rajasthan,UDAIPUR,BHINDAR,KANOD,24.433,74.267,2019,7.86,2200.0,0.0,549.0,206.0,142.0,275.0,0.03,560.0,52.0,104.61,250.0,6.8,0.25,1430.0,
W242445076334001,601,Rajasthan,JHALAWAR,AKLERA,AKLERA,24.413,76.561,2019,7.42,1980.0,0.0,415.0,156.0,446.0,17.0,0.021,390.0,64.0,56.0,298.0,1.61,0.34,1287.0,
W242500076110001,602,Rajasthan,JHALAWAR,PIRAWA,BINDA,24.411,76.187,2019,7.71,910.0,0.0,219.0,156.0,15.0,73.0,0.004,410.0,88.0,46.3,30.0,1.74,0.342,592.0,
W242310074420001,603,Rajasthan,PRATAPGARH,CHHOTI SADRI,Choti Sadri,24.386,74.7,2019,7.64,808.0,0.0,293.0,50.0,30.0,109.0,0.0,310.0,68.0,34.12,56.0,1.5,1.17,525.0,
W242120073210001,604,Rajasthan,UDAIPUR,PHALASIYA,LUNIYARA,24.356,73.386,2019,8.06,2680.0,0.0,561.0,560.0,93.0,36.0,0.0,560.0,36.0,114.32,370.0,12.2,1.1,1742.0,
W242100076402001,605,Rajasthan,JHALAWAR,MANOHAR THANA,SAREDI,24.35,76.672,2019,8.11,1140.0,0.0,354.0,50.0,182.0,56.0,0.041,360.0,80.0,39.0,110.0,0.84,0.458,741.0,
W241938076451001,606,Rajasthan,JHALAWAR,MANOHAR THANA,GAJWARA,24.34,76.773,2019,7.84,740.0,0.0,122.0,99.0,92.0,57.0,0.002,330.0,36.0,58.4,25.0,0.43,0.169,481.0,
W242013074005801,607,Rajasthan,UDAIPUR,SALUMBAR,GUREL,24.337,74.019,2019,8.07,700.0,0.0,293.0,57.0,40.0,5.8,0.0,210.0,40.0,27.0,72.0,2.0,0.62,455.0,
W241800073220001,608,Rajasthan,UDAIPUR,PHALASIYA,Ghori Mari,24.306,73.388,2019,7.68,1767.0,0.0,342.0,319.0,104.0,50.0,0.02,520.0,104.0,63.34,155.0,19.0,0.43,1149.0,
W241900074260001,610,Rajasthan,CHITTAURGARH,BARI SADRI,KALAKHET,24.28,74.515,2019,7.7,577.0,0.0,305.0,28.0,12.0,3.5,0.1,215.0,48.0,23.16,41.0,2.7,0.5,375.0,
W241630075503001,611,Rajasthan,JHALAWAR,BHAWANI MANDI,MISHROLI,24.275,75.842,2019,8.16,900.0,0.0,214.0,71.0,172.0,11.0,0.012,280.0,32.0,48.67,85.0,1.83,0.426,585.0,
W241615076301501,612,Rajasthan,JHALAWAR,AKLERA,ASALPUR,24.271,76.504,2019,7.84,640.0,0.0,122.0,35.0,188.0,24.0,0.018,310.0,48.0,46.25,25.0,3.15,0.325,416.0,
W241400076483001,613,Rajasthan,JHALAWAR,MANOHAR THANA,MANOHAR THANA1,24.233,76.808,2019,8.17,540.0,0.0,110.0,106.0,96.0,0.8,0.001,160.0,40.0,14.64,81.0,4.16,0.142,351.0,
W241136073420001,614,Rajasthan,UDAIPUR,SARADA,PARSHAD,24.193,73.7,2019,7.63,1460.0,0.0,512.0,170.0,54.0,16.0,0.07,300.0,52.0,41.4,198.0,1.8,0.9,949.0,
W241054074421001,615,Rajasthan,PRATAPGARH,PRATAPGARH,Barawarda,24.182,74.703,2019,7.32,1030.0,0.0,317.0,156.0,45.0,2.4,0.0,260.0,64.0,24.39,126.0,0.8,1.62,670.0,
W241040075500001,616,Rajasthan,JHALAWAR,BHAWANI MANDI,KARVAN KALA,24.178,75.833,2019,7.92,1180.0,0.0,287.0,135.0,128.0,52.0,0.004,540.0,96.0,73.06,30.0,0.46,0.399,767.0,
W240900073500001,617,Rajasthan,UDAIPUR,SARADA,SARADA,24.15,73.833,2019,7.74,990.0,0.0,415.0,71.0,39.0,48.0,0.05,390.0,92.0,39.01,60.0,4.6,2.1,644.0,
W240900073210001,618,Rajasthan,UDAIPUR,PHALASIYA,Garanwas,24.15,73.35,2019,7.81,820.0,0.0,329.0,64.0,52.0,1.6,0.02,210.0,44.0,24.0,96.0,0.8,0.98,533.0,
W240730074024801,619,Rajasthan,UDAIPUR,SALUMBAR,SALUMBER1,24.128,74.047,2019,7.89,1600.0,0.0,586.0,113.0,88.0,80.0,0.15,390.0,52.0,63.28,138.0,87.0,1.3,1040.0,
W240550075520001,620,Rajasthan,JHALAWAR,BHAWANI MANDI,GAURADIYA KALAN,24.097,75.867,2019,7.92,780.0,0.0,73.0,35.0,288.0,39.0,0.008,340.0,32.0,63.25,48.0,0.14,0.16,507.0,
W240521074293001,621,Rajasthan,PRATAPGARH,DHARIAWAD,Jawahar Nagar,24.093,74.48,2019,7.88,410.0,0.0,195.0,21.0,14.0,16.0,0.0,170.0,36.0,19.0,24.0,0.3,1.5,267.0,
W240200074533001,622,Rajasthan,PRATAPGARH,PRATAPGARH,Mokhampura,24.024,74.875,2019,7.7,740.0,0.0,256.0,64.0,13.0,75.0,0.5,290.0,62.0,32.9,40.0,0.9,1.1,481.0,
W240100073580001,623,Rajasthan,UDAIPUR,SALUMBAR,INTALIKHARA,24.006,73.959,2019,7.82,1090.0,0.0,439.0,121.0,30.0,33.0,0.03,300.0,48.0,43.82,130.0,10.0,2.37,709.0,
W240005073453001,624,Rajasthan,UDAIPUR,RISHABHDEV,KALAYANPURA,24.001,73.758,2019,7.98,1500.0,0.0,573.0,135.0,47.0,65.0,0.03,340.0,52.0,51.12,135.0,102.0,0.78,975.0,
W240015075530001,625,Rajasthan,JHALAWAR,DAG,GUNAVI,23.995,75.883,2019,7.69,1500.0,0.0,232.0,241.0,136.0,109.0,0.017,290.0,40.0,46.24,217.0,0.56,0.299,975.0,
W235900073320001,626,Rajasthan,UDAIPUR,KHERWARA,KHERWARA,23.983,73.601,2019,7.87,1460.0,0.0,451.0,170.0,84.0,40.0,0.0,360.0,48.0,58.41,170.0,3.5,1.0,949.0,
W235730074044501,627,Rajasthan,DUNGARPUR,ASPUR,ASPUR1,23.958,74.079,2019,8.08,670.0,0.0,231.0,85.0,20.0,0.5,0.04,170.0,52.0,9.79,75.0,5.0,3.15,435.0,
W235710075431201,628,Rajasthan,JHALAWAR,DAG,GWALAT,23.953,75.709,2019,7.76,1120.0,0.0,329.0,127.0,94.0,55.0,0.013,380.0,60.0,55.99,98.0,1.78,0.747,728.0,
W235600075370001,629,Rajasthan,JHALAWAR,DAG,GANGDHAR,23.933,75.617,2019,7.85,2000.0,0.0,439.0,255.0,232.0,129.0,0.009,750.0,120.0,109.56,115.0,52.0,0.16,1300.0,
W235645074403701,630,Rajasthan,PRATAPGARH,PEEPALKHOONT,Suhagpura,23.915,74.707,2019,7.78,1470.0,0.0,232.0,301.0,108.0,9.0,0.02,330.0,102.0,18.36,185.0,5.9,1.42,956.0,
W235340074263502,631,Rajasthan,BANSWARA,GHATOL,Rathor Ki Phadoli,23.894,74.443,2019,7.88,600.0,0.0,268.0,21.0,34.0,60.0,0.0,290.0,80.0,21.98,20.0,1.0,0.32,390.0,
W235340074263501,632,Rajasthan,BANSWARA,GHATOL,Narwali,23.883,74.433,2019,8.03,890.0,0.0,390.0,71.0,42.0,26.0,0.0,390.0,96.0,36.59,42.0,7.7,2.05,579.0,
W235120074094001,633,Rajasthan,DUNGARPUR,SABLA,SABLA,23.856,74.18,2019,7.73,1235.0,0.0,378.0,191.0,57.0,9.0,0.0,300.0,52.0,41.4,148.0,23.7,1.5,803.0,
