well_id,sno,state,district,block,location,longitude,latitude,year,ph,ec,co3,hco3,cl,so4,no3,po4,th,ca,mg,na,k,f,sio2,tds
W193530074180001,1,Maharashtra,Ahmednagar,SANGAMNER,Kokangaon,74.3,19.59166667,2022,7.9,1315.0,0,518.7,120.5,61.6,18.2,,465.0,80.2,64.4,88.3,1.6,0.53,,
W192600074540001,2,Maharashtra,Ahmednagar,NEVASA,Vadala Bhairoba,74.9,19.43333333,2022,7.55,1513.0,0,292.9,191.4,187.4,63.7,,510.0,116.2,53.5,96.4,7.2,0.18,,
W192400075180001,3,Maharashtra,Ahmednagar,SHEVGAON,Ghotan,75.3,19.4,2022,7.36,6611.0,0,756.6,1201.8,824.4,200.4,,1900.0,348.7,250.3,380.4,450.0,0.11,,
W191640074134001,4,Maharashtra,Ahmednagar,SANGAMNER,Bote,74.22777778,19.27777778,2022,7.97,1276.0,0,305.1,102.8,79.5,200.1,,425.0,76.2,57.1,87.7,2.1,0.31,,
W193130073553001,5,Maharashtra,Ahmednagar,AKOLA,Rajur,73.925,19.525,2022,7.85,638.4,0,323.4,24.8,18.4,11.1,,290.0,50.1,40.1,15.7,0.3,0.2,,
W193400074131501,6,Maharashtra,Ahmednagar,SANGAMNER,Sangamner,74.22083333,19.56666667,2022,8.14,1810.0,0,445.4,198.5,124.6,197.0,,460.0,80.2,63.2,202.8,5.0,0.69,,
W192100074103001,7,Maharashtra,Ahmednagar,SANGAMNER,Ambikhalsa,74.175,19.35,2022,8.02,950.8,0,378.3,60.3,53.1,38.8,,250.0,50.1,30.4,104.6,0.8,0.54,,
W194300074290001,8,Maharashtra,Ahmednagar,KOPARGAON,Rahata,74.48333333,19.71666667,2022,7.63,3930.0,0,439.3,904.0,160.1,200.3,,1025.0,210.4,121.5,440.4,1.6,0.45,,
W191400074400001,9,Maharashtra,Ahmednagar,NAGAR,Dehre,74.66666667,19.23333333,2022,8.08,516.5,0,207.5,49.6,16.3,3.4,,190.0,60.1,9.7,27.6,1.1,0.24,,
W190620074375001,10,Maharashtra,Ahmednagar,NAGAR,Jakhangaon,74.63055556,19.10555556,2022,7.76,3735.0,0,360.0,397.0,890.1,80.0,,1230.0,210.4,171.3,297.1,6.1,0.59,,
W193600074303001,11,Maharashtra,Ahmednagar,SHRIRAMPUR,Babhuleshwar,74.50833333,19.6,2022,8.11,868.7,0,366.1,53.2,46.6,13.1,,280.0,60.1,31.6,72.7,0.4,0.6,,
W185735074322001,12,Maharashtra,Ahmednagar,PARNER,Supe,74.53888889,18.95972222,2022,7.78,2007.0,0,421.0,244.6,141.1,198.4,,470.0,80.2,65.6,223.0,9.6,1.25,,
W185745074482501,13,Maharashtra,Ahmednagar,NAGAR,Dahigaon,74.80694444,18.9625,2022,7.56,4286.0,0,366.1,524.7,924.1,200.2,,1000.0,200.4,121.5,335.5,330.3,0.45,,
W192120075190001,14,Maharashtra,Ahmednagar,SHEVGAON,Rakshi,75.31666667,19.35555556,2022,8.12,784.2,0,292.9,56.7,63.5,16.7,,280.0,60.1,31.6,44.3,6.4,0.56,,
W192830074371501,15,Maharashtra,Ahmednagar,RAHURI,Devlali,74.62083333,19.475,2022,7.91,1940.0,0,482.1,237.5,160.0,80.3,,455.0,56.1,76.5,219.5,11.4,0.52,,
W192300074345501,16,Maharashtra,Ahmednagar,RAHURI,Malharwadi,74.58194444,19.38333333,2022,7.82,739.9,0,244.1,78.0,45.7,13.7,,240.0,40.1,34.0,58.8,2.4,0.69,,
W191720074441501,17,Maharashtra,Ahmednagar,RAHURI,Bambori,74.7375,19.28888889,2022,8.02,492.7,0,183.1,39.0,38.2,9.1,,190.0,34.1,25.5,28.2,0.6,0.32,,
W192345074491501,18,Maharashtra,Ahmednagar,NEVASA,Sonai,74.82083333,19.39583333,2022,7.89,675.0,0,286.8,42.5,30.9,9.7,,245.0,50.1,29.2,36.6,1.1,0.29,,
W193300075064501,19,Maharashtra,Ahmednagar,NEVASA,Shirasgaon,75.10138889,19.55,2022,7.99,924.2,0,244.1,109.9,105.6,8.6,,280.0,60.1,31.6,79.4,4.0,0.26,,
W184400075190001,20,Maharashtra,Ahmednagar,JAMKHED,Jamkhed,75.31666667,18.73333333,2022,7.96,2296.0,0,622.4,315.5,160.1,46.2,,860.0,136.3,126.4,116.5,8.2,0.49,,
W192900074120001,21,Maharashtra,Ahmednagar,SANGAMNER,Chandanapuri,74.2,19.48333333,2022,7.77,1049.0,0,274.6,127.6,54.0,67.0,,335.0,64.1,42.5,77.9,1.1,0.31,,
W183840074534801,22,Maharashtra,Ahmednagar,KARJAT,Bhitkewadi,74.89666667,18.64444444,2022,7.78,706.8,0,231.9,60.3,45.6,68.4,,240.0,50.1,27.9,57.6,0.7,0.47,,
W183800075060001,23,Maharashtra,Ahmednagar,KARJAT,Pategaon,75.1,18.63333333,2022,7.63,1438.0,0,366.1,216.2,95.4,18.2,,345.0,40.1,59.5,149.4,25.4,0.59,,
W183100074590001,24,Maharashtra,Ahmednagar,KARJAT,Kolwadi,74.98333333,18.51666667,2022,7.97,2742.0,0,695.6,475.0,78.8,65.0,,465.0,80.2,64.4,315.7,126.3,0.23,,
W193100074151001,25,Maharashtra,Ahmednagar,SANGAMNER,Tambhol,74.25277778,19.51666667,2022,8.25,273.2,0,73.2,46.1,9.0,4.1,,125.0,26.1,14.6,6.0,0.6,0.1,,
W183700074370001,26,Maharashtra,Ahmednagar,SHRIGONDA,Vadegaon Madhe,74.61666667,18.61666667,2022,7.51,2068.0,0,207.5,354.5,299.0,60.1,,740.0,102.2,117.9,109.9,0.9,0.26,,
W190821074231401,27,Maharashtra,Ahmednagar,PARNER,Takli-Dhogeswar-1,74.38722222,19.13916667,2022,8.03,757.1,0,366.1,42.5,20.5,4.5,,225.0,40.1,30.4,67.2,1.8,0.75,,
W192505075051501,28,Maharashtra,Ahmednagar,NEVASA,Kokona-1,75.0875,19.41805556,2022,7.53,1965.0,0,299.0,301.3,159.6,195.3,,760.0,146.3,96.0,89.0,0.9,0.39,,
W190005074550002,29,Maharashtra,Ahmednagar,NAGAR,Chichondi Patil,74.91666667,19.00138889,2022,7.77,1298.0,0,280.7,187.9,119.8,20.0,,405.0,70.1,55.9,96.1,1.8,0.37,,
W192119074522401,30,Maharashtra,Ahmednagar,NEVASA,Ghodegaon-1,74.87333333,19.35527778,2022,8.18,838.8,0,305.1,60.3,74.6,7.2,,225.0,40.1,30.4,85.6,0.8,0.44,,
W193531074285501,31,Maharashtra,Ahmednagar,KOPARGAON,Loni-Pravara Nagar,74.48194444,19.59194444,2022,7.83,1386.0,0,353.9,195.0,109.0,35.3,,460.0,82.2,62.0,98.9,0.6,0.35,,
W191617074510701,32,Maharashtra,Ahmednagar,NAGAR,Khosepuri-1,74.85194444,19.27138889,2022,7.88,992.1,0,451.5,60.3,44.7,16.1,,330.0,56.1,46.2,74.8,2.6,0.63,,
W184226075175001,33,Maharashtra,Ahmednagar,JAMKHED,Jamkhed-1,75.29722222,18.70722222,2022,7.56,1270.0,0,256.3,173.7,157.8,23.0,,460.0,60.1,75.3,69.6,1.2,0.45,,
W193657074443601,34,Maharashtra,Ahmednagar,SHRIRAMPUR,Khokar,74.74333333,19.61583333,2022,7.59,1785.0,0,244.1,315.5,200.2,58.4,,640.0,132.3,75.3,102.3,3.1,0.25,,
W193546074483901,35,Maharashtra,Ahmednagar,SHRIRAMPUR,Taklibhan-1,75.37305556,19.98638889,2022,7.84,619.6,0,238.0,42.5,36.1,23.5,,235.0,48.1,27.9,35.2,0.5,0.13,,
W193330074551601,36,Maharashtra,Ahmednagar,NEVASA,Nevasa Bk,74.95444444,19.52666667,2022,7.64,2248.0,0,414.9,312.0,160.1,200.1,,750.0,132.3,102.1,170.5,3.2,0.31,,
W192922074580201,37,Maharashtra,Ahmednagar,NEVASA,Bhanas Hivre,74.96722222,19.48944444,2022,7.85,825.5,0,305.1,81.5,47.3,11.9,,300.0,60.1,36.5,54.1,1.0,2.08,,
W192255074515101,38,Maharashtra,Ahmednagar,NEVASA,Shani Shingnapur,74.95444444,19.52666667,2022,8.2,2779.0,0,805.5,205.6,390.6,20.0,,215.0,40.1,27.9,542.9,7.4,0.72,,
W190756074590501,39,Maharashtra,Ahmednagar,NAGAR,Karanji,74.98472222,19.13222222,2022,7.9,821.5,0,280.7,67.4,42.2,65.4,,290.0,46.1,42.5,58.9,0.9,0.83,,
W191246074481101,40,Maharashtra,Ahmednagar,NAGAR,Jeur,74.80305556,19.21277778,2022,8.1,1546.0,0,299.0,156.0,158.9,200.5,,285.0,54.1,36.5,178.8,77.9,0.84,,
W193644073435601,41,Maharashtra,Ahmednagar,AKOLA,Kalsubai,73.73222222,19.61222222,2022,7.49,355.5,0,140.3,24.8,16.6,14.8,,150.0,40.1,12.2,11.4,1.3,0.16,,
W193212073461001,42,Maharashtra,Ahmednagar,AKOLA,Bhandardara,73.76944444,19.53666667,2022,7.71,227.2,0,91.5,17.7,11.8,2.9,,95.0,26.1,7.3,6.3,2.2,0.1,,
W185000074520001,43,Maharashtra,Ahmednagar,SHRIGONDA,Banpimpri,74.86666667,18.83333333,2022,7.5,3248.0,0,518.7,506.9,395.2,79.8,,700.0,104.2,106.9,401.9,62.8,0.77,,
W183700074430001,44,Maharashtra,Ahmednagar,SHRIGONDA,Shrigonda,74.71666667,18.61666667,2022,7.8,1933.0,0,506.5,280.1,152.4,20.5,,750.0,180.4,72.9,96.2,5.0,0.4,,
W182600074560001,45,Maharashtra,Ahmednagar,KARJAT,Rassin,74.93333333,18.43333333,2022,7.6,1186.0,0,311.2,138.3,125.6,13.8,,385.0,52.1,62.0,81.6,21.8,0.3,,
W190000074380001,46,Maharashtra,Ahmednagar,NAGAR,Chas,74.63333333,19.0,2022,7.91,980.2,0,366.1,102.8,42.4,16.4,,315.0,64.1,37.7,80.1,7.5,0.46,,
W183800074530001,47,Maharashtra,Ahmednagar,KARJAT,Walvad,74.88333333,18.63333333,2022,7.93,884.2,0,311.2,74.4,53.2,34.7,,215.0,40.1,27.9,103.1,0.6,1.18,,
W185200074430001,48,Maharashtra,Ahmednagar,SHRIGONDA,Chikhale,74.71666667,18.86666667,2022,7.32,5627.0,0,567.5,1219.5,390.3,200.3,,2000.0,621.2,109.4,301.0,184.5,0.24,,
W190200074500001,49,Maharashtra,Ahmednagar,NAGAR,Takle-Kazi,74.83333333,19.03333333,2022,7.5,1238.0,0,250.2,152.4,79.4,156.9,,475.0,90.2,60.8,61.3,2.4,0.26,,
W184320075130001,50,Maharashtra,Ahmednagar,KARJAT,Mirajgaon-3,75.21666667,18.72222222,2022,7.59,1696.0,0,274.6,269.4,160.1,73.2,,440.0,84.2,55.9,185.7,2.6,0.49,,
W184843074534601,51,Maharashtra,Ahmednagar,SHRIGONDA,Ghogargaon-1,74.89611111,18.81194444,2022,7.48,2046.0,0,360.0,382.9,158.1,10.2,,515.0,80.2,76.5,232.2,8.5,0.57,,
W184029075105301,52,Maharashtra,Ahmednagar,JAMKHED,Arangaon-3,75.18138889,18.67472222,2022,7.85,1215.0,0,280.7,191.4,89.2,40.7,,345.0,60.1,47.4,120.9,3.9,0.64,,
W182730074492401,53,Maharashtra,Ahmednagar,KARJAT,Baradgaon Sudrik,74.82333333,18.45833333,2022,7.82,1595.0,0,396.6,226.9,126.6,22.6,,265.0,50.1,34.0,225.2,15.6,0.67,,
W182710074445801,54,Maharashtra,Ahmednagar,KARJAT,Wadarwadi,74.74944444,18.45277778,2022,7.53,1642.0,0,207.5,216.2,300.4,39.8,,535.0,120.2,57.1,119.8,0.7,0.38,,
W185852074422301,55,Maharashtra,Ahmednagar,NAGAR,Khadki,74.64833333,19.01805556,2022,8.07,620.2,0,140.3,63.8,68.3,49.0,,235.0,40.1,32.8,38.3,1.4,0.39,,
W184510074382301,56,Maharashtra,Ahmednagar,SHRIGONDA,Ghargaon,74.64833333,19.01805556,2022,7.77,972.8,0,384.4,74.4,58.8,27.7,,265.0,50.1,34.0,101.3,0.6,0.82,,
W190438074392201,57,Maharashtra,Ahmednagar,NAGAR,Hivrebazar,74.65611111,19.07722222,2022,7.73,637.7,0,183.1,53.2,41.5,60.2,,215.0,58.1,17.0,48.3,0.4,0.7,,
W185458074243601,58,Maharashtra,Ahmednagar,PARNER,Ralegaon Siddhi,74.41,18.91611111,2022,7.97,1051.0,0,256.3,180.8,49.0,17.4,,315.0,60.1,40.1,90.2,10.2,0.33,,
W192531073582301,59,Maharashtra,Ahmednagar,AKOLA,Kotul,73.97305556,19.42527778,2022,7.73,695.1,0,262.4,46.1,31.6,48.8,,300.0,60.1,36.5,21.3,0.3,0.31,,
W190131074430501,60,Maharashtra,Ahmednagar,NAGAR,Arangaon-1,74.71805556,19.02527778,2022,7.94,664.5,0,195.3,85.1,42.3,10.6,,205.0,26.1,34.0,53.0,2.0,0.37,,
W183633074581801,61,Maharashtra,Ahmednagar,KARJAT,Rehekuri,,,2022,7.92,665.1,0,195.3,70.9,48.5,39.7,,190.0,38.1,23.1,65.4,0.8,0.7,,
W192311075101301,62,Maharashtra,Ahmednagar,SHEVGAON,Khamgaon,,,2022,7.48,2921.0,0,854.3,329.7,78.7,80.2,,1080.0,226.5,125.1,167.1,2.5,0.44,,
W195356074221101,63,Maharashtra,Ahmednagar,KOPARGAON,Kolpewadi-1,,,2022,7.72,2092.0,0,488.2,358.0,85.4,57.1,,570.0,40.1,114.2,218.7,1.7,0.27,,
W203250077152001,64,Maharashtra,Akola,Barshitakli,Pinjar,77.25555556,20.54722222,2022,7.63,961.8,0,494.3,88.6,58.4,5.1,,355.0,84.2,35.2,87.2,3.0,1.2,,
W204030076531501,65,Maharashtra,Akola,Balapur,Wyala,76.8875,20.675,2022,7.55,5119.0,0,622.4,872.1,552.3,304.4,,1810.0,312.6,250.3,332.6,39.2,0.59,,
W202740076463001,66,Maharashtra,Akola,Patur,Chani,76.775,20.46111111,2022,7.63,1134.0,0,524.8,102.8,47.8,76.7,,485.0,84.2,66.8,66.2,1.8,0.73,,
W203029076495901,67,Maharashtra,Akola,Patur,Sasti,76.83305556,20.50805556,2022,7.61,1516.0,0,518.7,148.9,61.5,100.2,,510.0,102.2,62.0,105.4,9.1,0.86,,
W203524076551901,68,Maharashtra,Akola,Balapur,Majhari,76.92194444,20.59,2022,7.32,1057.0,0,439.3,85.1,35.4,101.4,,390.0,100.2,34.0,69.8,5.9,0.72,,
W204400077220001,69,Maharashtra,Akola,Murtijapur,Murtizapur,77.36666667,20.73333333,2022,7.5,1126.0,0,555.3,117.0,63.7,11.6,,570.0,158.3,42.5,38.6,4.0,0.73,,
W202700076560001,70,Maharashtra,Akola,Patur,Patur,76.93333333,20.45,2022,7.24,789.9,0,396.6,31.9,17.6,21.3,,320.0,62.1,40.1,32.1,1.7,0.66,,
W205910077011501,71,Maharashtra,Akola,Akot,Patsul,77.01805556,20.98611111,2022,7.83,1993.0,0,884.8,145.3,124.9,58.1,,360.0,38.1,64.4,304.7,5.5,0.91,,
W203530076520001,72,Maharashtra,Akola,Balapur,Wadegaon,77.0675,20.46861111,2022,7.56,3403.0,0,628.5,542.4,299.4,204.2,,1070.0,126.3,183.5,309.2,9.4,0.74,,
W203500077040001,73,Maharashtra,Akola,Barshitakli,Barshi Takli,77.06666667,20.58333333,2022,7.59,1268.0,0,537.0,106.4,54.9,7.1,,520.0,116.2,55.9,49.8,9.8,0.75,,
W204412077002601,74,Maharashtra,Akola,Akola,Akola,77.00166667,20.73666667,2022,7.66,7899.0,0,579.7,1524.4,1155.0,105.0,,2005.0,250.5,335.3,892.4,2.9,0.79,,
W204825076493001,75,Maharashtra,Akola,Balapur,Ural,76.825,20.80694444,2022,7.74,1455.0,0,561.4,124.1,121.5,52.5,,505.0,112.2,54.7,102.4,8.5,0.78,,
W211230077044502,76,Maharashtra,Akola,Akot,Popetkheda,77.07916667,21.20833333,2022,7.81,701.2,0,384.4,21.3,18.1,3.1,,270.0,70.1,23.1,42.2,2.7,0.79,,
W205300076511002,77,Maharashtra,Akola,Balapur,Andura1,76.85277778,20.88333333,2022,7.83,5203.0,0,732.2,935.9,820.4,20.0,,870.0,198.4,91.1,776.1,23.1,0.69,,
W202943077093701,78,Maharashtra,Akola,Barshitakli,Mahan-1,77.15194444,20.49527778,2022,7.79,781.1,0,335.6,35.5,29.3,25.2,,285.0,78.2,21.9,34.0,1.2,0.7,,
W210838077081101,79,Maharashtra,Akola,AKOT,Panaj,77.13638889,21.14388889,2022,7.64,2305.0,0,518.7,244.6,71.4,309.6,,775.0,124.2,113.0,118.2,9.9,0.45,,
W203338077104201,80,Maharashtra,Akola,BARSHITAKLI,Donad,77.17833333,20.56055556,2022,7.81,1243.0,0,524.8,63.8,23.4,96.6,,470.0,58.1,79.0,69.8,0.8,0.63,,
W203023077121601,81,Maharashtra,Akola,BARSHITAKLI,Hatola,77.20444444,20.50638889,2022,7.6,744.4,0,292.9,56.7,35.0,66.8,,315.0,86.2,24.3,28.1,3.1,0.54,,
W202724076513301,82,Maharashtra,Akola,Patur,Ambashi,76.85916667,20.45666667,2022,7.73,749.1,0,366.1,42.5,28.1,53.0,,300.0,84.2,21.9,44.1,0.5,0.82,,
W202435076511201,83,Maharashtra,Akola,Patur,Alegaon,76.85333333,20.40972222,2022,7.68,591.0,0,335.6,21.3,13.6,5.0,,260.0,80.2,14.6,18.8,0.4,0.62,,
W204400077460002,84,Maharashtra,Amravati,NANDGAON KHANDESH,Mahuli,77.76666667,20.73333333,2022,7.63,1057.0,0,305.1,120.5,63.9,46.9,,350.0,100.2,24.3,73.7,6.7,0.42,,
W212100078010001,85,Maharashtra,Amravati,MORSHI,Warud,78.26666667,21.46666667,2022,7.62,1183.0,0,396.6,85.1,71.1,46.7,,450.0,112.2,41.3,58.9,0.4,0.43,,
W212800078160002,86,Maharashtra,Amravati,WARUD,Sendurjana,78.1,20.68333333,2022,7.63,826.3,0,329.5,49.6,35.7,45.1,,325.0,78.2,31.6,40.5,1.9,0.5,,
W205310077523002,87,Maharashtra,Amravati,AMRAVATI,Pohra,77.875,20.88611111,2022,7.57,807.8,0,402.7,17.7,23.9,23.5,,350.0,76.2,38.9,25.5,0.8,0.35,,
W205600078030001,88,Maharashtra,Amravati,TEOSA,Kurha,78.05,20.93333333,2022,7.71,836.0,0,256.3,81.5,46.1,45.9,,325.0,66.1,38.9,45.7,0.5,0.39,,
W204900077580001,89,Maharashtra,Amravati,CHANDUR RAILWAY,Chandur Railway,77.96666667,20.81666667,2022,7.78,1234.0,0,360.0,124.1,87.7,47.4,,425.0,50.1,72.9,84.3,10.0,0.44,,
W210510078040501,90,Maharashtra,Amravati,TEOSA,Teosa,78.06805556,21.08361111,2022,7.74,892.0,0,213.6,109.9,64.9,47.7,,325.0,78.2,31.6,59.4,1.5,0.18,,
W204100078092501,91,Maharashtra,Amravati,CHANDUR RAILWAY,Devgaon,78.15138889,20.68333333,2022,7.61,686.3,0,207.5,63.8,45.2,7.6,,255.0,52.1,30.4,32.7,0.9,0.36,,
W212136077564001,92,Maharashtra,Amravati,MORSHI,Chicholi,77.94444444,21.36,2022,7.68,1487.0,0,402.7,191.4,89.4,48.1,,520.0,120.2,53.5,98.5,13.3,0.53,,
W211855077571501,93,Maharashtra,Amravati,MORSHI,Khanapur,77.95416667,21.31527778,2022,7.82,1684.0,0,476.0,237.5,84.4,47.7,,425.0,110.2,36.5,147.2,66.2,0.37,,
W211830077553001,94,Maharashtra,Amravati,MORSHI,Ashtagaon,77.925,21.30833333,2022,7.76,1042.0,0,238.0,109.9,66.8,48.2,,350.0,100.2,24.3,51.8,10.8,0.53,,
W211955077520901,95,Maharashtra,Amravati,MORSHI,Saiwada,77.86916667,21.33194444,2022,7.78,1168.0,0,353.9,120.5,75.0,48.2,,460.0,110.2,45.0,61.8,2.9,0.51,,
W212140077520501,96,Maharashtra,Amravati,MORSHI,Pimpri,77.86805556,21.36111111,2022,7.8,658.8,0,225.8,49.6,47.5,9.1,,190.0,40.1,21.9,39.0,19.9,0.49,,
W212310078004001,97,Maharashtra,Amravati,MORSHI,Pala,78.0,21.38611111,2022,7.83,1249.0,0,305.1,170.2,59.9,47.6,,350.0,82.2,35.2,102.3,2.7,0.55,,
W212335078050201,98,Maharashtra,Amravati,MORSHI,Hiwarkheda,78.08388889,21.39305556,2022,7.8,1042.0,0,274.6,92.2,51.4,43.0,,360.0,78.2,40.1,49.8,1.7,0.35,,
W212235078112501,99,Maharashtra,Amravati,WARUD,Loni,78.19027778,21.37638889,2022,7.69,1570.0,0,506.5,187.9,76.8,48.3,,640.0,70.1,113.0,83.1,0.9,0.27,,
W205500078081501,100,Maharashtra,Amravati,TEOSA,Anjansingi,78.13472222,20.91666667,2022,7.78,1180.0,0,347.8,102.8,61.4,47.6,,250.0,60.1,24.3,87.4,90.2,0.22,,
W211940077405701,101,Maharashtra,Amravati,Chandur Bazar,Sirasgaon (Kasba),77.6825,21.32777778,2022,7.82,563.6,0,231.9,17.7,23.2,25.4,,220.0,50.1,23.1,22.7,0.9,0.2,,
W212300078033501,102,Maharashtra,Amravati,MORSHI,Dapori1,78.05138889,21.38333333,2022,7.77,1124.0,0,347.8,102.8,49.7,47.8,,370.0,80.2,41.3,80.0,1.4,0.48,,
W212950078142002,103,Maharashtra,Amravati,WARUD,Temburkheda1,78.23888889,21.49722222,2022,7.8,1297.0,0,372.2,131.2,80.5,46.7,,535.0,150.3,38.9,44.7,0.4,0.51,,
W203750077510801,104,Maharashtra,Amravati,NANDGAON KHANDESH,Shivni1,77.85222222,20.63055556,2022,7.83,1161.0,0,286.8,148.9,54.3,48.5,,250.0,52.1,29.2,68.9,96.0,0.3,,
W204518077553301,105,Maharashtra,Amravati,CHANDUR RAILWAY,Belteki,77.92583333,20.755,2022,7.88,854.0,0,366.1,39.0,33.3,47.6,,325.0,70.1,36.5,49.3,0.6,0.41,,
W212330078240501,106,Maharashtra,Amravati,WARUD,Amner_old,78.40138889,21.39166667,2022,8.0,1233.0,0,610.2,78.0,16.5,29.5,,445.0,100.2,47.4,83.5,1.4,0.27,,
W212614078204001,107,Maharashtra,Amravati,WARUD,Chandas,78.34444444,21.43722222,2022,7.73,2127.0,0,408.8,464.4,82.0,49.6,,840.0,140.3,119.1,91.4,1.5,0.33,,
W212518078061001,108,Maharashtra,Amravati,WARUD,Umerkhed,78.1,21.42166667,2022,7.93,819.0,0,311.2,53.2,44.2,32.7,,300.0,66.1,32.8,50.1,5.0,0.51,,
W212001077482901,109,Maharashtra,Amravati,CHANDURBAZAR,Ghatlarki,77.80805556,21.33361111,2022,7.8,809.0,0,207.5,109.9,37.7,47.9,,310.0,64.1,36.5,42.3,0.4,0.39,,
W203954077424501,110,Maharashtra,Amravati,NANDGAON KHANDESH,Wadala Fatehpur,77.7125,20.665,2022,7.55,766.3,0,122.0,156.0,50.6,24.9,,300.0,68.1,31.6,30.7,0.7,0.25,,
W210100077420001,111,Maharashtra,Amravati,Amravati,Walgaon,77.7,21.01666667,2022,8.13,2798.0,0,1055.6,290.7,50.1,46.6,,430.0,76.2,58.3,395.0,13.1,0.54,,
W211400077440001,112,Maharashtra,Amravati,Chandur Bazar,Chandur Bazar,77.73333333,21.23333333,2022,7.99,1208.0,0,549.2,85.1,42.3,29.6,,340.0,74.1,37.7,117.0,0.3,0.43,,
W212600077250001,113,Maharashtra,Amravati,Chikhaldara,Silona,77.41666667,21.43333333,2022,7.7,450.9,0,195.3,14.2,16.4,25.1,,200.0,44.1,21.9,12.3,0.5,0.34,,
W213400077250001,114,Maharashtra,Amravati,Chikhaldara,Chunkhedi,77.41666667,21.56666667,2022,7.6,417.6,0,195.3,14.2,6.6,2.3,,170.0,28.1,24.3,9.0,0.6,0.18,,
W211430077490001,115,Maharashtra,Amravati,Morshi,Rithpur,77.81666667,21.24166667,2022,7.67,1524.0,0,170.9,333.2,52.2,49.0,,400.0,90.2,42.5,134.6,3.0,0.67,,
W213050076465001,116,Maharashtra,Amravati,Dharni,Bhokarbardi,76.78055556,21.51388889,2022,7.9,947.0,0,427.1,31.9,22.7,39.1,,190.0,50.1,15.8,105.3,1.2,0.59,,
W213000077121501,117,Maharashtra,Amravati,Chikhaldara,Kolkaz,77.20416667,21.5,2022,7.62,405.0,0,183.1,21.3,9.8,1.6,,175.0,40.1,18.2,9.6,0.5,0.25,,
W213200077022001,118,Maharashtra,Amravati,Dharni,Lawada,77.03333333,21.53333333,2022,7.83,581.3,0,170.9,63.8,21.5,23.1,,250.0,52.1,29.2,12.7,0.5,0.22,,
W210300077184501,119,Maharashtra,Amravati,Anjangaon Surji,Nimbhari,77.3125,21.05,2022,8.14,2854.0,0,1080.1,276.5,45.6,49.6,,345.0,80.2,35.2,426.1,4.4,1.22,,
W211252077215401,120,Maharashtra,Amravati,ACHALPUR,Pathrot-2,77.365,21.21444444,2022,7.59,1020.0,0,183.1,198.5,48.0,49.6,,450.0,96.2,51.0,33.3,1.2,0.27,,
W205537077154701,121,Maharashtra,Amravati,DARYAPUR,Samda Kasmpur,77.26305556,20.92694444,2022,7.78,3034.0,0,213.6,779.9,41.4,49.0,,410.0,100.2,38.9,398.6,1.7,0.29,,
W211917077440801,122,Maharashtra,Amravati,CHANDURBAZAR,Brahmanwada (Thadi),77.73555556,21.32138889,2022,7.81,673.0,0,256.3,31.9,28.2,26.7,,225.0,30.1,36.5,37.8,1.2,0.26,,
W212016077341401,123,Maharashtra,Amravati,ACHALPUR,Kharapi,77.57055556,21.33777778,2022,7.73,647.0,0,262.4,31.9,28.1,40.8,,270.0,48.1,36.5,22.7,0.4,0.27,,
W205941077273101,124,Maharashtra,Amravati,DARYAPUR,Yevda,77.45861111,20.99472222,2022,7.92,6284.0,0,781.1,1559.8,47.2,49.8,,650.0,92.2,102.1,1155.1,5.6,0.2,,
W205429077422601,125,Maharashtra,Amravati,AMRAVATI,Lontek-1,77.70722222,20.90805556,2022,8.09,1363.0,0,506.5,102.8,55.8,49.0,,335.0,60.1,45.0,145.5,0.5,0.86,,
W210327078001401,126,Maharashtra,Amravati,TEOSA,Mozari,78.00111111,21.05055556,2022,7.76,827.0,0,256.3,102.8,40.0,48.9,,290.0,50.1,40.1,61.3,0.5,0.53,,
W205614077481501,127,Maharashtra,Amravati,AMRAVATI,Amravati_University,77.80416667,20.93722222,2022,7.97,616.0,0,262.4,21.3,20.8,3.0,,225.0,50.1,24.3,17.6,0.7,0.34,,
W212430077120601,128,Maharashtra,Amravati,Chikhaldara,karaigaon,77.20166667,21.40833333,2022,7.87,669.0,0,256.3,35.5,20.2,39.4,,250.0,40.1,36.5,26.4,0.3,0.27,,
W212413077194701,129,Maharashtra,Amravati,Chikhaldara,chikhaldara,77.32972222,21.40361111,2022,7.67,505.0,0,152.6,42.5,31.1,43.3,,210.0,48.1,21.9,12.3,0.3,0.18,,
W212116077262901,130,Maharashtra,Amravati,Achalpur,Dhamni,77.44138889,21.35444444,2022,7.75,500.0,0,213.6,21.3,28.9,15.0,,210.0,34.1,30.4,14.7,0.2,0.25,,
W213438077270001,131,Maharashtra,Amravati,Chikhaldara,Khandukheda,77.45,21.57722222,2022,7.81,381.0,0,213.6,3.5,10.9,1.9,,175.0,40.1,18.2,10.0,0.3,0.2,,
W205653077295501,132,Maharashtra,Amravati,,Shignapur,77.49784444,20.95166667,2022,8.23,1640.0,0,610.2,202.1,48.3,31.1,,425.0,100.2,42.5,178.9,1.1,0.37,,
W200730075280001,133,Maharashtra,Aurangabad,AURANGABAD,Patri,75.46666667,20.1175,2022,7.39,1510.0,0,335.6,216.2,85.1,81.6,,525.0,102.2,65.6,86.4,37.9,0.53,,
W195500074450001,134,Maharashtra,Aurangabad,VAIJAPUR,Rotegaon,74.75,19.91666667,2022,8.01,835.3,0,347.8,67.4,80.6,5.6,,355.0,58.1,51.0,39.8,1.8,0.39,,
W201600075080001,135,Maharashtra,Aurangabad,KANNAD,Kannad,75.13333333,20.26666667,2022,7.44,1505.0,0,305.1,251.7,65.5,85.4,,595.0,100.2,83.8,64.4,0.7,0.38,,
W200800074510001,136,Maharashtra,Aurangabad,VAIJAPUR,Tunki,74.85,20.13333333,2022,7.76,8173.0,0,579.7,1701.6,852.4,89.4,,1720.0,190.4,302.5,1122.7,5.2,0.66,,
W200500075090001,137,Maharashtra,Aurangabad,KHULDABAD,Walur Tanda,75.15,20.08333333,2022,7.97,1780.0,0,628.5,138.3,78.4,81.2,,460.0,60.1,75.3,200.8,1.4,1.24,,
W201000075380001,138,Maharashtra,Aurangabad,SILLOD,Kaigaon,75.63333333,20.16666667,2022,7.61,1096.0,0,335.6,95.7,63.9,78.1,,370.0,62.1,52.2,53.1,25.6,0.61,,
W200100075234001,139,Maharashtra,Aurangabad,AURANGABAD,Chauka,75.39444444,20.01666667,2022,7.59,1009.0,0,360.0,78.0,53.7,54.2,,310.0,56.1,41.3,53.0,45.7,0.5,,
W201000075040001,140,Maharashtra,Aurangabad,KANNAD,Kinnal,75.06666667,20.00277778,2022,7.52,1403.0,0,280.7,156.0,197.5,52.9,,510.0,94.2,66.8,91.2,0.8,0.59,,
W200015075113001,141,Maharashtra,Aurangabad,KHULDABAD,Khuldabad,75.19166667,20.00027778,2022,7.89,1457.0,0,555.3,124.1,47.0,64.8,,490.0,60.1,82.6,95.9,1.3,0.56,,
W200205075020501,142,Maharashtra,Aurangabad,KANNAD,Devgaon-1,75.03472222,20.03472222,2022,7.7,1354.0,0,286.8,180.8,100.2,67.0,,460.0,76.2,65.6,81.0,1.2,0.43,,
W194158075002301,143,Maharashtra,Aurangabad,GANAGAPUR,Gangapur-3,75.00083333,19.69944444,2022,7.45,1633.0,0,335.6,187.9,170.1,60.3,,545.0,104.2,69.3,98.6,1.3,0.34,,
W200323074534001,144,Maharashtra,Aurangabad,VAIJAPUR,Garaj,74.89444444,20.05638889,2022,7.6,1250.0,0,213.6,170.2,83.2,59.9,,450.0,72.1,65.6,47.9,1.5,0.39,,
W195554074423801,145,Maharashtra,Aurangabad,VAIJAPUR,Vaijapur,74.71055556,19.93166667,2022,7.78,852.0,0,305.1,99.3,45.1,10.8,,300.0,52.1,41.3,54.1,1.2,0.69,,
W201728075161901,146,Maharashtra,Aurangabad,KANNAD,Hasta,75.27194444,20.29111111,2022,7.77,884.8,0,286.8,60.3,34.7,78.1,,345.0,54.1,51.0,23.8,0.7,0.54,,
W193904075200701,147,Maharashtra,Aurangabad,PAITHAN,Taherpur,75.33527778,19.65111111,2022,7.76,3339.0,0,543.1,482.1,359.6,80.0,,780.0,84.2,138.5,404.6,1.7,0.81,,
W193155075302401,148,Maharashtra,Aurangabad,PAITHAN,Dawarwadi,75.50666667,19.53194444,2022,7.99,1062.0,0,353.9,106.4,60.3,24.3,,310.0,38.1,52.2,85.5,0.5,0.58,,
W195206075281701,149,Maharashtra,Aurangabad,AURANGABAD,Shendra,75.47138889,19.86833333,2022,7.63,2432.0,0,445.4,386.4,205.3,66.3,,760.0,118.2,113.0,181.6,1.8,0.63,,
W195409075184501,150,Maharashtra,Aurangabad,AURANGABAD,Abad Vidhyapeeth,75.3125,19.9025,2022,7.64,1428.0,0,500.4,198.5,31.9,8.7,,485.0,68.1,76.5,92.1,1.1,0.54,,
W195051074495201,151,Maharashtra,Aurangabad,VAIJAPUR,Waghalgaon,74.83111111,19.8475,2022,7.74,1253.0,0,317.3,134.7,67.5,65.6,,500.0,78.2,74.1,52.7,0.6,0.59,,
W194352075072701,152,Maharashtra,Aurangabad,GANAGAPUR,Dahegaon Bangla,75.11861111,19.73111111,2022,7.78,823.5,0,268.5,60.3,47.7,60.2,,310.0,54.1,42.5,30.3,0.8,0.53,,
W202723075423601,153,Maharashtra,Aurangabad,SILLOD,Golegaon Budruk,75.71,20.45638889,2022,7.82,1664.0,0,378.3,198.5,68.8,85.2,,550.0,64.1,94.8,75.0,2.5,0.56,,
W195321075184201,154,Maharashtra,Aurangabad,AURANGABAD,Abad PES polytec,75.31166667,19.88916667,2022,7.53,1163.0,0,378.3,134.7,65.8,36.0,,365.0,60.1,52.2,94.8,1.8,0.45,,
W195310075185401,155,Maharashtra,Aurangabad,AURANGABAD,Abad Police HQ,75.315,19.88611111,2022,7.77,1177.0,0,323.4,124.1,74.0,61.0,,325.0,52.1,47.4,99.0,3.7,0.49,,
W195305075201201,156,Maharashtra,Aurangabad,AURANGABAD,Abad PWD RH,75.33666667,19.88472222,2022,7.92,947.6,0,317.3,99.3,24.9,15.3,,260.0,54.1,30.4,66.3,6.2,0.48,,
W193418075370901,157,Maharashtra,Aurangabad,PAITHAN,Pachud-1,75.63333333,19.58333333,2022,7.56,958.2,0,323.4,81.5,64.6,45.9,,350.0,64.1,46.2,48.0,1.2,0.58,,
W192925075234401,158,Maharashtra,Aurangabad,PAITHAN,Paithan-1,75.39555556,19.49027778,2022,7.8,1458.0,0,378.3,180.8,144.7,10.1,,400.0,52.1,65.6,146.6,1.0,0.53,,
W202121075334301,159,Maharashtra,Aurangabad,SILLOD,Bharadi,75.56194444,20.35583333,2022,7.65,999.0,0,183.1,141.8,81.3,65.6,,395.0,64.1,57.1,35.5,0.7,0.55,,
W201156075331301,160,Maharashtra,Aurangabad,SILLOD,Aalandh,75.93361111,20.34111111,2022,7.79,981.9,0,305.1,63.8,61.9,68.3,,360.0,62.1,49.8,33.7,1.8,0.57,,
W195317075185301,161,Maharashtra,Aurangabad,AURANGABAD,Panchakki-Aurangabad,75.31472222,19.88805556,2022,7.59,1118.0,0,360.0,131.2,58.3,20.2,,315.0,54.1,43.7,103.5,4.2,0.44,,
W195401075192102,162,Maharashtra,Aurangabad,AURANGABAD,Aurangabad City-Bibi Ka,75.3225,19.90027778,2022,7.52,1289.0,0,384.4,127.6,122.7,32.3,,445.0,66.1,68.0,74.2,1.8,0.65,,
W195650075131601,163,Maharashtra,Aurangabad,KHULDABAD,Daulatabad Fort,75.22111111,19.94722222,2022,7.74,834.6,0,396.6,42.5,39.7,13.8,,260.0,40.1,38.9,59.3,13.8,0.47,,
W201011075075401,164,Maharashtra,Aurangabad,KANNAD,Hatnur1,75.13166667,20.16972222,2022,7.59,1123.0,0,268.5,102.8,84.5,64.0,,395.0,54.1,63.2,48.9,0.7,0.52,,
W194621074544401,165,Maharashtra,Aurangabad,GANAGAPUR,Varkhed (Rajanggaon),74.91194444,19.77222222,2022,7.94,699.0,0,262.4,39.0,39.3,60.3,,290.0,46.1,42.5,26.5,0.5,0.51,,
W203230075443001,166,Maharashtra,Aurangabad,SILLOD,Ajanta,75.74166667,20.54166667,2022,7.72,1664.0,0,549.2,159.5,70.2,60.4,,475.0,52.1,83.8,98.8,60.3,0.38,,
W203458075402301,167,Maharashtra,Aurangabad,SOEGAON,Jangla Tanda-1,75.67305556,20.58277778,2022,7.73,1324.0,0,366.1,134.7,73.3,51.7,,440.0,50.1,76.5,65.0,8.7,0.49,,
W203535075423001,168,Maharashtra,Aurangabad,SOEGAON,Fardapur-1,75.70833333,20.59305556,2022,7.64,952.8,0,305.1,85.1,60.2,50.5,,365.0,58.1,53.5,42.3,1.1,0.46,,
W203529075371501,169,Maharashtra,Aurangabad,SOEGAON,Soyegaon-1,75.62083333,20.59138889,2022,7.54,1286.0,0,469.9,109.9,57.1,48.1,,485.0,64.1,79.0,51.7,4.6,0.57,,
W184400076240001,170,Maharashtra,Beed,AMBEJOGAI,Ambejogai,76.4,18.73333333,2022,7.53,1078.0,0,244.1,92.2,166.0,21.1,,245.0,52.1,27.9,106.9,3.2,0.77,,
W191700075360001,171,Maharashtra,Beed,GEORAI,Umapur,75.6,19.28333333,2022,7.51,712.6,0,305.1,21.3,36.3,80.0,,260.0,48.1,34.0,44.4,0.9,1.14,,
W184300076080001,172,Maharashtra,Beed,Kaij,Kumbhephal,76.13333333,18.71666667,2022,7.23,1315.0,0,299.0,141.8,85.2,77.0,,445.0,80.2,59.5,50.1,2.8,0.53,,
W185000076290001,173,Maharashtra,Beed,AMBEJOGAI,Kanerwadi,76.48333333,18.83333333,2022,7.88,538.5,0,244.1,28.4,36.2,11.2,,195.0,40.1,23.1,28.6,12.6,0.57,,
W190400075190001,174,Maharashtra,Beed,PATODA,Manur,75.31666667,19.06666667,2022,7.36,9776.0,0,1110.6,1822.1,438.8,92.4,,3100.0,1062.1,109.4,426.6,305.8,0.66,,
W185600075380001,175,Maharashtra,Beed,PATODA,Pithi,75.63333333,18.93333333,2022,7.95,2213.0,0,823.8,244.6,58.3,24.7,,445.0,104.2,45.0,158.7,165.8,0.57,,
W185600075213001,176,Maharashtra,Beed,PATODA,Pimpalwandi,75.35833333,18.93333333,2022,7.98,897.8,0,347.8,67.4,54.8,17.6,,320.0,52.1,46.2,45.3,2.0,0.93,,
W185900076110001,177,Maharashtra,Beed,MANJLEGAON,Telgaon,76.18333333,18.98333333,2022,7.9,791.0,0,292.9,70.9,63.9,6.9,,280.0,88.2,14.6,48.8,7.3,0.71,,
W184600075333001,178,Maharashtra,Beed,Patoda,Daskhed,75.55833333,18.76666667,2022,7.82,598.0,0,183.1,39.0,43.4,68.6,,210.0,42.1,25.5,34.4,1.2,0.69,,
W185700075120001,179,Maharashtra,Beed,ASHTI,Doithana,75.2,18.95,2022,8.06,675.5,0,317.3,39.0,23.6,4.5,,260.0,34.1,42.5,31.0,1.2,0.89,,
W185800075530001,180,Maharashtra,Beed,BEED,Mauj,75.88333333,18.96666667,2022,7.69,1148.0,0,335.6,74.4,83.8,87.2,,345.0,40.1,59.5,73.8,1.4,1.05,,
W185900076020001,181,Maharashtra,Beed,KAIJ,Wadwani,76.03333333,18.98333333,2022,8.07,1723.0,0,610.2,138.3,83.0,80.5,,420.0,60.1,65.6,138.4,54.2,1.0,,
W185900076230001,182,Maharashtra,Beed,MANJLEGAON,Sirsala,76.38333333,18.98333333,2022,7.83,2872.0,0,750.5,219.8,226.9,27.8,,935.0,80.2,178.6,101.0,99.0,0.61,,
W191040075375501,183,Maharashtra,Beed,GEORAI,Kolegaon,75.63194444,19.17777778,2022,7.83,658.1,0,256.3,67.4,40.0,2.6,,260.0,30.1,45.0,29.4,2.2,0.79,,
W185200075280001,184,Maharashtra,Beed,PATODA,Patoda,75.46666667,18.86666667,2022,7.63,1445.0,0,457.7,141.8,81.9,45.9,,430.0,58.1,69.3,91.4,10.7,0.46,,
W185100076320001,185,Maharashtra,Beed,AMBEJOGAI,Parli,76.53333333,18.85,2022,7.87,1086.0,0,256.3,99.3,158.7,24.6,,410.0,72.1,55.9,47.1,1.9,0.64,,
W185455075445001,186,Maharashtra,Beed,BEED,Pali,75.74722222,18.91527778,2022,7.73,684.3,0,353.9,21.3,29.0,14.0,,260.0,24.0,48.6,36.6,0.3,0.66,,
W191300075552001,187,Maharashtra,Beed,GEORAI,Bhend Takli,75.92222222,19.21666667,2022,7.98,545.1,0,213.6,24.8,54.2,16.0,,215.0,38.1,29.2,21.5,1.4,1.03,,
W184400076384001,188,Maharashtra,Beed,AMBEJOGAI,Dharmapuri,76.64444444,18.73333333,2022,8.0,494.7,0,231.9,17.7,33.6,26.8,,195.0,28.1,30.4,24.7,0.5,0.93,,
W190325075255201,189,Maharashtra,Beed,PATODA,Sirur,75.43111111,19.05694444,2022,8.04,1787.0,0,372.2,148.9,248.5,13.3,,340.0,54.1,49.8,235.5,7.1,0.92,,
W190616076124501,190,Maharashtra,Beed,MANJLEGAON,Patrud-1,76.2125,19.10027778,2022,7.98,909.8,0,353.9,42.5,41.9,81.8,,270.0,32.1,46.2,76.8,1.5,1.4,,
W184002076251801,191,Maharashtra,Beed,Ambejogai,Saigaon-1,76.42166667,18.66722222,2022,7.84,992.0,0,231.9,99.3,79.8,79.0,,345.0,60.1,47.4,44.2,1.5,0.73,,
W184756076063101,192,Maharashtra,Beed,KAIJ,Dharur-1,76.10861111,18.79888889,2022,8.11,627.6,0,286.8,31.9,41.7,16.1,,205.0,32.1,30.4,49.3,1.0,1.84,,
W184634075504701,193,Maharashtra,Beed,Beed,Nandur Phata,75.84638889,18.77611111,2022,7.64,992.8,0,305.1,85.1,62.6,70.8,,340.0,32.1,63.2,51.3,2.5,0.92,,
W184741076114301,194,Maharashtra,Beed,AMBEJOGAI,Waguli,76.19527778,18.79472222,2022,7.84,1115.0,0,292.9,92.2,23.7,80.9,,210.0,30.1,32.8,95.1,2.1,1.26,,
W185407075105101,195,Maharashtra,Beed,ASHTI,Kinhi,75.18083333,18.90194444,2022,7.84,984.2,0,299.0,78.0,55.2,83.6,,340.0,36.1,60.8,47.8,8.3,0.98,,
W190116075453001,196,Maharashtra,Beed,BEED,Jirewadi-1,75.75833333,19.01694444,2022,7.89,2882.0,0,524.8,326.1,222.1,85.1,,360.0,24.0,72.9,357.1,9.7,0.93,,
W185727074583201,197,Maharashtra,Beed,ASHTI,Waghluj,74.97555556,18.9575,2022,8.0,868.7,0,341.7,74.4,53.3,15.5,,290.0,30.1,52.2,57.9,1.2,1.05,,
W185246075052601,198,Maharashtra,Beed,ASHTI,Sheri Bk,75.085,18.87944444,2022,7.65,2667.0,0,366.1,340.3,191.2,81.3,,780.0,158.3,93.6,163.5,4.4,0.8,,
W191629075441901,199,Maharashtra,Beed,GEORAI,Georai-1,75.73861111,19.27472222,2022,7.74,1885.0,0,341.7,244.6,249.0,77.2,,530.0,90.2,74.1,156.4,3.7,1.22,,
W191030075302801,200,Maharashtra,Beed,GEORAI,Tintarvani-1,75.50777778,19.175,2022,7.59,3238.0,0,421.0,453.8,228.8,70.9,,505.0,52.1,91.1,191.1,209.0,0.83,,
W190226075281401,201,Maharashtra,Beed,PATODA,Anandgaon,75.47055556,19.04055556,2022,7.86,782.8,0,317.3,31.9,59.0,41.9,,285.0,36.1,47.4,40.7,1.6,0.79,,
W185544075263401,202,Maharashtra,Beed,PATODA,Dongar Kini-1,75.44277778,18.92888889,2022,7.74,694.5,0,305.1,39.0,37.5,11.6,,265.0,30.1,46.2,34.5,1.0,0.69,,
W185921076155901,203,Maharashtra,Beed,MANJLEGAON,Dindrur-1,76.26638889,18.98916667,2022,8.13,1556.0,0,549.2,95.7,57.4,80.2,,250.0,18.0,49.8,185.3,2.7,1.52,,
W190345075450801,204,Maharashtra,Beed,BEED,Ghosapuri,75.75222222,19.05111111,2022,7.74,919.7,0,262.4,85.1,58.0,45.4,,325.0,42.1,53.5,39.7,1.0,0.95,,
W191947075430901,205,Maharashtra,Beed,GEORAI,Nagjhera,75.71916667,19.32972222,2022,7.63,1691.0,0,341.7,187.9,160.4,65.8,,470.0,44.1,87.5,104.5,4.4,0.98,,
W185041075443501,206,Maharashtra,Beed,GEORAI,Kapildhar,75.74305556,18.84472222,2022,7.85,1311.0,0,311.2,131.2,72.3,41.6,,365.0,50.1,58.3,61.7,2.3,0.73,,
W185448075364301,207,Maharashtra,Beed,PATODA,Naygaon,75.61194444,18.91333333,2022,7.82,1281.0,0,347.8,124.1,71.9,45.4,,400.0,28.1,80.2,58.5,1.0,0.73,,
W184116076183201,208,Maharashtra,Beed,Kaij,Lokhandi Sawargaon-1,76.30888889,18.68777778,2022,7.71,694.5,0,225.8,49.6,39.5,44.6,,235.0,38.1,34.0,32.2,0.5,0.69,,
W190835075435301,209,Maharashtra,Beed,GEORAI,Pinpalnar,75.9525,19.04388889,2022,7.74,1094.0,0,250.2,85.1,75.8,71.1,,345.0,48.1,54.7,37.7,1.0,0.79,,
W184211075565201,210,Maharashtra,Beed,Kaij,Kalegaon,75.94777778,18.70305556,2022,7.85,717.5,0,231.9,56.7,35.6,38.7,,255.0,36.1,40.1,28.1,0.8,0.82,,
W191210075514601,211,Maharashtra,Beed,GEORAI,Shirsadevi,75.86277778,19.20277778,2022,8.2,1006.0,0,500.4,24.8,29.4,60.6,,125.0,16.0,20.7,165.7,2.7,1.57,,
W184243075413401,212,Maharashtra,Beed,Beed,Chausala,75.69277778,18.71194444,2022,7.73,778.6,0,250.2,67.4,38.8,59.6,,285.0,24.0,54.7,37.0,1.3,0.78,,
W184920075072501,213,Maharashtra,Beed,ASHTI,Kasari,75.12361111,18.82222222,2022,7.98,919.8,0,323.4,70.9,70.4,21.8,,295.0,30.1,53.5,59.3,0.9,1.12,,
W190238075570901,214,Maharashtra,Beed,BEED,Kumbhawadi,75.73138889,19.14305556,2022,7.84,873.8,0,329.5,46.1,45.8,64.3,,280.0,28.1,51.0,52.4,7.1,1.35,,
W185641075451301,215,Maharashtra,Beed,BEED,Aher Wadgaon,75.75361111,18.94472222,2022,7.86,903.1,0,366.1,53.2,45.5,37.9,,325.0,26.1,63.2,39.2,10.7,0.91,,
W191752075413101,216,Maharashtra,Beed,GEORAI,Dhondrai-1,,,2022,7.84,851.1,0,225.8,85.1,58.7,31.5,,305.0,58.1,38.9,28.3,0.9,0.75,,
W184052075565501,217,Maharashtra,Beed,,Uttareshwar Pimpri,,,2022,7.74,1026.0,0,274.6,117.0,33.0,60.7,,365.0,44.1,62.0,37.0,0.6,1.11,,
W185240075275801,218,Maharashtra,Beed,PATODA,Chumbli,,,2022,8.13,519.2,0,256.3,17.7,20.4,9.0,,95.0,30.1,4.9,69.5,3.2,0.86,,
W184000075090001,219,Maharashtra,Beed,ASHTI,Khadkhat,75.15,18.66666667,2022,7.87,3104.0,0,305.1,521.1,61.6,68.6,,675.0,138.3,80.2,173.6,25.2,0.97,,
W184800075100001,220,Maharashtra,Beed,ASHTI,Ashti,75.16666667,18.8,2022,8.17,712.9,0,189.2,85.1,41.0,37.5,,120.0,32.1,9.7,93.9,0.8,1.58,,
W185716074584701,221,Maharashtra,Beed,ASHTI,Dhanora-1,75.01694444,18.91694444,2022,7.99,797.2,0,286.8,124.1,54.8,22.3,,370.0,46.1,62.0,36.7,2.8,1.04,,
W184759075215201,222,Maharashtra,Beed,PATODA,Sautada,75.36444444,18.79972222,2022,7.92,709.8,0,305.1,56.7,28.3,25.8,,195.0,70.1,4.9,97.2,2.8,0.8,,
W210500079590001,223,Maharashtra,Bhandara,SAKOLI,Sakoli,79.98333333,21.08333333,2022,7.41,686.5,0,323.4,49.6,6.9,2.6,,295.0,54.1,38.9,17.3,1.6,1.05,,
W212200079430001,224,Maharashtra,Bhandara,MOHADI,Tumsar Khapa,79.71666667,21.36666667,2022,7.2,1465.0,0,335.6,230.4,95.1,42.3,,425.0,80.2,54.7,127.1,5.9,1.1,,
W212300079350001,225,Maharashtra,Bhandara,MOHADI,Jamb,79.58333333,21.38333333,2022,7.25,1305.0,0,329.5,163.1,82.1,65.8,,425.0,86.2,51.0,90.0,3.6,0.6,,
W210800079423001,226,Maharashtra,Bhandara,BHANDARA,Palari,79.70833333,21.13333333,2022,7.12,1383.0,0,219.7,255.2,93.5,88.3,,490.0,128.3,41.3,89.2,0.7,0.61,,
W210600079410001,227,Maharashtra,Bhandara,BHANDARA,Daodipar Khapa,79.68333333,21.1,2022,7.56,1109.0,0,195.3,184.3,68.4,79.3,,395.0,84.2,45.0,65.2,3.9,1.06,,
W210800079560001,228,Maharashtra,Bhandara,SAKOLI,Ekodi,79.93333333,21.13333333,2022,7.69,170.2,0,73.2,10.6,6.9,4.1,,70.0,20.0,4.9,5.2,2.8,0.66,,
W212730079502501,229,Maharashtra,Bhandara,TUMSAR,Sihora,79.84027778,21.45833333,2022,7.51,1001.0,0,244.1,138.3,66.8,42.0,,360.0,38.1,64.4,53.0,6.6,0.61,,
W212815079430001,230,Maharashtra,Bhandara,TUMSAR,Chicholi,79.71666667,21.47083333,2022,7.67,637.7,0,231.9,49.6,51.8,15.3,,195.0,34.1,26.7,48.3,17.3,0.71,,
W205700079480001,231,Maharashtra,Bhandara,LAKHANDUR,Madgi,79.8,20.95,2022,7.6,627.0,0,183.1,63.8,31.9,40.3,,265.0,40.1,40.1,21.6,1.7,0.96,,
W212350079402001,232,Maharashtra,Bhandara,MOHADI,Usarra,79.67222222,21.39722222,2022,7.29,1534.0,0,305.1,212.7,137.8,89.0,,390.0,76.2,48.6,105.2,91.6,0.95,,
W210930079391501,233,Maharashtra,Bhandara,BHANDARA,Bhandara,79.65416667,21.15833333,2022,7.76,650.1,0,292.9,35.5,35.1,6.7,,245.0,30.1,41.3,38.4,3.1,0.89,,
W204630079373501,234,Maharashtra,Bhandara,PAUNI,Pauni,79.62638889,20.775,2022,7.79,569.8,0,207.5,46.1,47.2,7.5,,155.0,20.0,25.5,61.3,1.7,0.78,,
W204445079530501,235,Maharashtra,Bhandara,LAKHANDUR,Lakhandur,79.88472222,20.74583333,2022,7.67,181.6,0,91.5,7.1,0.0,5.3,,75.0,20.0,6.1,5.9,2.9,0.73,,
W211400079384801,236,Maharashtra,Bhandara,MOHADI,Varti,79.64666667,21.23333333,2022,7.76,417.7,0,183.1,21.3,18.4,10.3,,140.0,14.0,25.5,28.6,3.2,0.92,,
W210033079583401,237,Maharashtra,Bhandara,SAKOLI,Sakra,79.97611111,21.00916667,2022,7.57,548.0,0,91.5,102.8,50.0,2.1,,175.0,30.1,24.3,24.4,34.2,0.63,,
W211700079410002,238,Maharashtra,Bhandara,MOHADI,Dahegaon2,79.68333333,21.28333333,2022,7.48,560.4,0,170.9,56.7,49.5,3.8,,135.0,16.0,23.1,52.3,15.3,0.66,,
W210730079403001,239,Maharashtra,Bhandara,BHANDARA,Ambadi,79.675,21.1175,2022,7.66,844.4,0,122.0,170.2,51.2,22.4,,325.0,60.1,42.5,36.5,19.1,0.68,,
W210225079403501,240,Maharashtra,Bhandara,BHANDARA,Shrinagar,79.67638889,21.04027778,2022,7.71,1708.0,0,286.8,379.3,72.2,11.2,,615.0,20.0,137.3,86.2,11.3,1.05,,
W205517079510401,241,Maharashtra,Bhandara,PAUNI,Kawalewada,79.85111111,20.92138889,2022,7.52,489.6,0,140.3,67.4,19.1,30.8,,185.0,38.1,21.9,23.8,9.1,0.69,,
W210030079410901,242,Maharashtra,Bhandara,BHANDARA,Pagora,79.68583333,21.00083333,2022,7.32,910.7,0,378.3,63.8,32.1,13.3,,200.0,22.0,35.2,115.5,2.4,1.87,,
W205008079462401,243,Maharashtra,Bhandara,SAKOLI,Masal,79.77333333,20.83555556,2022,7.56,465.0,0,146.4,56.7,13.3,30.5,,145.0,26.1,19.4,37.0,9.8,0.95,,
W205814079540101,244,Maharashtra,Bhandara,SAKOLI,Murmadi,79.90027778,20.97055556,2022,7.92,706.1,0,152.6,138.3,22.7,9.7,,150.0,26.1,20.7,92.3,11.6,1.31,,
W212848079342401,245,Maharashtra,Bhandara,TUMSAR,Landejhari,79.57333333,21.48,2022,7.96,755.4,0,213.6,102.8,35.9,22.2,,145.0,8.0,30.4,101.2,7.5,0.94,,
W213206079421701,246,Maharashtra,Bhandara,TUMSAR,Paunarkhairi,79.70472222,21.535,2022,7.55,656.8,0,274.6,42.5,19.9,29.6,,140.0,6.0,30.4,76.5,10.0,1.34,,
W212433079470401,247,Maharashtra,Bhandara,TUMSAR,Khair Langi,79.78444444,21.40916667,2022,7.92,2282.0,0,488.2,489.2,63.1,4.6,,395.0,8.0,91.1,338.6,5.9,1.66,,
W213126079433501,248,Maharashtra,Bhandara,TUMSAR,Gobarwahi,79.72638889,21.52388889,2022,7.72,553.8,0,158.7,67.4,36.1,2.6,,140.0,14.0,25.5,65.0,2.0,1.82,,
W210559079440601,249,Maharashtra,Bhandara,BHANDARA,Dhargaon-1,79.735,21.09972222,2022,7.78,875.3,0,219.7,131.2,47.3,14.9,,310.0,24.0,60.8,57.9,5.5,2.06,,
W210341079543301,250,Maharashtra,Bhandara,SAKOLI,Mundipar Sadak,79.90916667,21.06138889,2022,7.52,743.4,0,292.9,63.8,30.4,8.3,,270.0,50.1,35.2,34.5,12.3,1.6,,
W200900076340001,251,Maharashtra,Buldhana,MEHKAR,Mehkar,76.56666667,20.15,2022,7.53,2072.0,0,476.0,276.5,164.2,90.0,,795.0,230.5,53.5,95.9,6.2,0.49,,
W200100076020001,252,Maharashtra,Buldhana,DEULGAON RAJA,Deolgaon Raja,76.03333333,20.01666667,2022,7.57,1642.0,0,451.5,177.3,149.9,86.5,,625.0,122.2,77.8,74.7,0.7,0.49,,
W195700076030001,253,Maharashtra,Buldhana,DEULGAON RAJA,Sindkhed Raja,76.05,19.95,2022,7.79,727.0,0,286.8,67.4,28.6,7.6,,270.0,58.1,30.4,26.6,10.5,0.28,,
W202630076134501,254,Maharashtra,Buldhana,CHIKHLI,Kelwad,76.22916667,20.44166667,2022,7.68,1498.0,0,500.4,148.9,63.6,36.5,,460.0,50.1,81.4,66.0,36.9,0.38,,
W200515076320501,255,Maharashtra,Buldhana,LONAR,Sultanpur,76.53472222,20.08361111,2022,7.55,1658.0,0,427.1,237.5,70.0,33.5,,485.0,80.2,69.3,105.3,5.4,0.42,,
W195900076330002,256,Maharashtra,Buldhana,LONAR,Lonar1,76.55,19.98333333,2022,7.66,2015.0,0,598.0,265.9,75.5,38.6,,680.0,120.2,92.3,97.8,29.8,0.15,,
W204033076312801,257,Maharashtra,Buldhana,KHAMGAON,Godhnapur,76.52444444,20.67583333,2022,7.75,1013.0,0,439.3,49.6,57.2,45.8,,400.0,58.1,62.0,46.3,1.3,0.43,,
W203706076254401,258,Maharashtra,Buldhana,KHAMGAON,Nandri,76.42888889,20.61833333,2022,7.81,1122.0,0,457.7,74.4,33.1,42.6,,425.0,78.2,55.9,48.6,0.5,0.69,,
W203106076402101,259,Maharashtra,Buldhana,Khamgaon,Ambe Takli,76.6725,20.51833333,2022,7.74,1121.0,0,463.8,74.4,59.4,42.6,,425.0,62.1,65.6,56.7,0.4,0.6,,
W203834076402101,260,Maharashtra,Buldhana,Khamgaon,Rohna,76.6725,20.64277778,2022,7.69,1164.0,0,378.3,95.7,39.9,85.5,,455.0,80.2,62.0,35.7,0.4,0.7,,
W201737076241901,261,Maharashtra,Buldhana,MEHKAR,Loni,76.40527778,20.29361111,2022,7.76,826.0,0,152.6,113.4,74.0,46.0,,300.0,58.1,37.7,34.7,9.8,0.41,,
W204800076420001,262,Maharashtra,Buldhana,Shegaon,Shegaon,76.7,20.8,2022,7.58,2208.0,0,604.1,283.6,170.0,12.5,,850.0,122.2,132.4,73.4,1.4,0.79,,
W204100076120001,263,Maharashtra,Buldhana,Motala,Motala,76.2,20.68333333,2022,7.69,1457.0,0,537.0,141.8,48.5,45.1,,470.0,80.2,65.6,88.8,2.6,0.58,,
W204000076330001,264,Maharashtra,Buldhana,Khamgaon,Garadgaon,76.55,20.66666667,2022,7.78,889.4,0,366.1,49.6,38.3,45.1,,340.0,44.1,55.9,35.7,0.4,0.63,,
W202500076270001,265,Maharashtra,Buldhana,Chikli,Amdapur,76.45,20.41666667,2022,7.32,1247.0,0,366.1,109.9,58.1,87.8,,440.0,70.1,64.4,42.5,8.8,0.34,,
W204328076261501,266,Maharashtra,Buldhana,Khamgaon,Pimpalgaon Raja,76.4375,20.72444444,2022,7.88,901.1,0,390.5,60.3,26.5,27.0,,275.0,50.1,36.5,70.0,1.3,0.64,,
W202050076380001,267,Maharashtra,Buldhana,Mehkar,Warwand,76.63333333,20.34722222,2022,7.61,1286.0,0,360.0,159.5,46.2,90.4,,460.0,80.2,63.2,57.4,4.1,0.43,,
W203745076074501,268,Maharashtra,Buldhana,Motala,Rohinkhed,76.11805556,20.62916667,2022,7.72,2028.0,0,720.0,301.3,16.8,9.9,,550.0,100.2,72.9,174.2,39.6,0.37,,
W204948076350001,269,Maharashtra,Buldhana,Shegaon,Jalamb,76.58333333,20.83,2022,7.66,1950.0,0,347.8,287.1,170.0,86.4,,770.0,122.2,113.0,57.4,0.8,0.41,,
W204859076121001,270,Maharashtra,Buldhana,Malkapur,Datala-1,76.20277778,20.81638889,2022,7.82,684.3,0,207.5,78.0,44.9,20.4,,195.0,38.1,24.3,56.7,3.2,0.31,,
W210526076332501,271,Maharashtra,Buldhana,Jalgaon-Jamod,Sungaon-1,76.55694444,21.08388889,2022,7.78,1366.0,0,402.7,173.7,59.5,67.3,,610.0,104.2,85.1,32.3,12.0,0.3,,
W202725076275001,272,Maharashtra,Buldhana,CHIKHLI,Undri,76.46388889,20.45694444,2022,7.81,779.3,0,244.1,78.0,34.8,70.5,,290.0,62.1,32.8,48.1,0.6,0.69,,
W201748076343501,273,Maharashtra,Buldhana,Mehkar,Janephal,76.96055556,20.50166667,2022,7.87,1360.0,0,469.9,106.4,68.6,54.1,,385.0,64.1,54.7,77.4,58.1,0.28,,
W203100076030001,274,Maharashtra,Buldhana,Buldana,Padali,76.05,20.51666667,2022,7.8,932.3,0,317.3,81.5,67.3,42.1,,365.0,60.1,52.2,38.0,3.4,0.57,,
W202400076000001,275,Maharashtra,Buldhana,BULDANA,Dhad,76.0,20.4,2022,7.48,1709.0,0,530.9,195.0,83.1,84.6,,590.0,100.2,82.6,94.5,0.8,0.69,,
W200530076105001,276,Maharashtra,Buldhana,DEULGAON RAJA,Deolgaon Mahi,76.18055556,20.09166667,2022,7.51,1080.0,0,274.6,109.9,140.3,17.9,,440.0,82.2,57.1,30.2,2.3,0.42,,
W200420076200202,277,Maharashtra,Buldhana,SINDKHED RAJA,Malkapur Pangra,76.33388889,20.07222222,2022,7.72,738.3,0,231.9,56.7,45.5,40.7,,280.0,60.1,31.6,21.4,0.7,0.38,,
W204200076343001,278,Maharashtra,Buldhana,Khamgaon,Khamgaon,76.575,20.7,2022,7.69,1317.0,0,469.9,117.0,56.9,45.9,,445.0,80.2,59.5,70.1,1.0,0.35,,
W203300076330001,279,Maharashtra,Buldhana,Khamgaon,Lokhanda,76.55,20.55,2022,7.61,1147.0,0,500.4,67.4,64.9,33.2,,410.0,62.1,62.0,69.1,1.5,0.69,,
W204000076020001,280,Maharashtra,Buldhana,MOTALA,Dhamangaon,76.03333333,20.66666667,2022,7.7,2066.0,0,720.0,234.0,70.0,84.1,,650.0,102.2,96.0,129.6,48.3,0.35,,
W204400076210001,281,Maharashtra,Buldhana,Nandura,Tarvadi,76.35,20.73333333,2022,7.5,1353.0,0,366.1,156.0,73.6,72.4,,515.0,70.1,82.6,47.9,2.2,0.42,,
W204600076014001,282,Maharashtra,Buldhana,Motala,Pimpalgaon Devi,76.02777778,20.76666667,2022,7.52,793.3,0,305.1,81.5,28.4,13.4,,290.0,48.1,41.3,37.0,0.6,0.56,,
W195910076144001,283,Maharashtra,Buldhana,SINDKHED RAJA,Kingaon Raja,76.24444444,19.98611111,2022,7.76,3158.0,0,579.7,414.8,410.6,86.6,,690.0,90.2,113.0,215.2,300.6,0.54,,
W204005076405001,284,Maharashtra,Buldhana,Khamgaon,Kolori,76.68055556,20.66805556,2022,7.87,1363.0,0,488.2,99.3,163.0,12.8,,450.0,66.1,69.3,67.2,46.7,0.27,,
W210300076320701,285,Maharashtra,Buldhana,Jalgaon-Jamod,Jalgaonjamodnew,76.53527778,21.05,2022,7.65,1671.0,0,530.9,187.9,75.5,72.1,,565.0,72.1,93.6,99.4,0.6,0.39,,
W205145076201201,286,Maharashtra,Buldhana,Nandura,Dighi,76.33666667,20.8625,2022,7.79,2336.0,0,567.5,265.9,168.1,78.2,,750.0,102.2,120.3,152.1,3.8,0.43,,
W205218076160001,287,Maharashtra,Buldhana,Malkapur,Waghul,76.26666667,20.87166667,2022,7.74,1204.0,0,286.8,191.4,67.1,11.6,,320.0,68.1,36.5,103.4,5.2,0.44,,
W203330076384402,288,Maharashtra,Buldhana,Khamgaon,Atali,76.64555556,20.55833333,2022,7.94,790.1,0,311.2,56.7,42.9,14.9,,290.0,54.1,37.7,33.5,6.2,0.67,,
W205655076435501,289,Maharashtra,Buldhana,Sangrampur,Paturda-1,76.73194444,20.94861111,2022,7.8,1408.0,0,457.7,127.6,57.1,84.4,,450.0,62.1,71.7,81.0,4.3,0.44,,
W210125076424101,290,Maharashtra,Buldhana,Sangrampur,Warwat Bakhal-1,76.71138889,21.02361111,2022,7.87,1481.0,0,488.2,131.2,47.4,62.5,,530.0,82.2,79.0,64.3,1.1,0.29,,
W205823076282901,291,Maharashtra,Buldhana,Jalgaon-Jamod,Khandvi,76.47472222,20.97305556,2022,8.0,1007.0,0,500.4,46.1,20.3,22.0,,205.0,32.1,30.4,128.0,0.6,1.28,,
W210624076412801,292,Maharashtra,Buldhana,Sangrampur,Tunki New,76.69111111,21.10666667,2022,7.73,1042.0,0,347.8,78.0,40.0,67.1,,390.0,62.1,57.1,32.6,0.4,0.29,,
W201802076143101,293,Maharashtra,Buldhana,CHIKHLI,Bhankheda,,,2022,7.9,742.2,0,292.9,28.4,18.9,80.1,,280.0,50.1,37.7,26.7,1.1,0.41,,
W203500079400001,294,Maharashtra,Chandrapur,NAGBHIR,Nagbhir,79.66666667,20.58333333,2022,7.29,708.1,0,274.6,67.4,23.9,10.1,,275.0,70.1,24.3,32.7,2.4,1.03,,
W200700079530001,295,Maharashtra,Chandrapur,MUL,Vyahad Khurd,79.88333333,20.11666667,2022,7.5,599.0,0,286.8,31.9,11.8,6.1,,225.0,56.1,20.7,28.0,10.0,1.16,,
W202930079233001,296,Maharashtra,Chandrapur,CHIMUR,Chimur,79.39166667,20.49166667,2022,7.47,923.8,0,366.1,67.4,49.8,2.2,,260.0,62.1,25.5,77.8,2.3,0.86,,
W203700079520001,297,Maharashtra,Chandrapur,BRAHMAPURI,Brahmapuri,79.86666667,20.61666667,2022,7.49,780.1,0,244.1,85.1,42.2,23.4,,245.0,50.1,29.2,65.6,0.5,0.97,,
W200400079410001,298,Maharashtra,Chandrapur,MUL,Mul,79.68333333,20.06666667,2022,7.39,1246.0,0,347.8,173.7,68.5,41.8,,465.0,40.1,88.7,66.9,1.3,0.79,,
W203500079293001,299,Maharashtra,Chandrapur,CHIMUR,Kawadsi,79.49166667,20.58333333,2022,7.78,1219.0,0,543.1,92.2,23.0,1.8,,355.0,60.1,49.8,115.6,1.5,1.89,,
W193900079260001,300,Maharashtra,Chandrapur,RAJURA,Wirur,79.43333333,19.65,2022,7.72,1225.0,0,427.1,141.8,45.2,26.4,,500.0,70.1,79.0,51.5,4.8,1.09,,
W194530079380001,301,Maharashtra,Chandrapur,GONDPIPRI,Aksapur,79.63333333,19.75833333,2022,7.25,4639.0,0,396.6,1251.4,205.1,4.5,,1170.0,122.2,210.2,489.1,25.4,0.8,,
W194000079200001,302,Maharashtra,Chandrapur,RAJURA,Sondo,79.33333333,19.66666667,2022,8.08,1964.0,0,640.7,226.9,67.8,69.1,,375.0,64.1,52.2,268.5,7.7,1.6,,
W200200079120001,303,Maharashtra,Chandrapur,CHANDRAPUR,Tadali,79.2,20.03333333,2022,7.75,757.6,0,378.3,31.9,41.3,11.3,,330.0,26.1,64.4,32.7,8.8,1.33,,
W200010079291001,304,Maharashtra,Chandrapur,CHANDRAPUR,Chichpalli,79.48611111,20.00027778,2022,7.74,2593.0,0,1299.7,177.3,9.6,6.8,,640.0,56.1,121.5,293.8,10.1,2.93,,
W201100079200001,305,Maharashtra,Chandrapur,BHADRAVATI,Mahurli,79.33333333,20.18333333,2022,7.59,938.5,0,262.4,99.3,63.2,57.3,,170.0,50.1,10.9,64.7,113.5,1.22,,
W200300079310001,306,Maharashtra,Chandrapur,CHANDRAPUR,Nandegur,79.51666667,20.05,2022,7.73,729.8,0,305.1,42.5,26.8,30.8,,285.0,40.1,45.0,17.7,28.6,1.4,,
W193730079371501,307,Maharashtra,Chandrapur,GONDPIPRI,Dabha,79.62083333,19.625,2022,7.89,1458.0,0,469.9,145.3,81.5,80.7,,310.0,76.2,29.2,95.1,162.3,0.8,,
W202430079000001,308,Maharashtra,Chandrapur,WARORA,Rampur,79.0,20.40833333,2022,7.46,1280.0,0,408.8,138.3,43.0,79.8,,430.0,74.1,59.5,87.1,7.3,0.78,,
W201830079050001,309,Maharashtra,Chandrapur,WARORA,Salori,79.08333333,20.30833333,2022,7.85,831.8,0,372.2,49.6,37.0,3.2,,210.0,18.0,40.1,95.4,3.2,1.24,,
W202800079500001,310,Maharashtra,Chandrapur,BRAHMAPURI,Mendki,79.83333333,20.46666667,2022,7.54,2253.0,0,488.2,421.9,85.4,58.9,,905.0,166.3,119.1,102.3,2.7,0.94,,
W201130079413001,311,Maharashtra,Chandrapur,MUL,Rajoli Tukkum,79.69166667,20.19166667,2022,7.57,2292.0,0,353.9,528.2,93.2,43.7,,705.0,106.2,106.9,193.7,9.3,1.01,,
W194900079430001,312,Maharashtra,Chandrapur,GONDPIPRI,Bhimni,79.71666667,19.81666667,2022,7.65,1153.0,0,384.4,113.4,52.3,53.2,,390.0,38.1,71.7,86.1,1.0,1.88,,
W200500079470001,313,Maharashtra,Chandrapur,MUL,Sawali,79.78333333,20.08333333,2022,7.95,1248.0,0,530.9,99.3,36.4,7.6,,340.0,36.1,60.8,119.8,2.8,1.78,,
W201737079104901,314,Maharashtra,Chandrapur,BHADRAVATI,Shegaon Khurd,79.18027778,20.29361111,2022,7.73,1257.0,0,262.4,195.0,76.7,69.0,,380.0,64.1,53.5,62.9,91.9,1.22,,
W202901079140101,315,Maharashtra,Chandrapur,WARORA,Wahangaon,79.23361111,20.48361111,2022,7.96,1672.0,0,500.4,127.6,197.3,39.5,,375.0,24.0,76.5,209.1,4.2,1.99,,
W201157079140401,316,Maharashtra,Chandrapur,BHADRAVATI,Chora,79.23444444,20.19916667,2022,7.8,2582.0,0,573.6,365.1,256.6,39.6,,325.0,72.1,35.2,417.4,11.6,2.08,,
W201230079553001,317,Maharashtra,Chandrapur,SINDEWAHI,Niphandra,79.925,20.20833333,2022,7.7,327.3,0,140.3,17.7,17.8,3.3,,140.0,24.0,19.4,7.7,2.7,0.83,,
W203230079273001,318,Maharashtra,Chandrapur,CHIMUR,Jambhulghat,79.45833333,20.54166667,2022,7.83,1496.0,0,598.0,156.0,25.4,41.6,,540.0,136.3,48.6,92.6,2.3,0.8,,
W203845079320001,319,Maharashtra,Chandrapur,CHIMUR,Shankarpur,79.53333333,20.64583333,2022,7.35,737.2,0,213.6,92.2,29.2,30.6,,295.0,64.1,32.8,30.9,5.0,1.28,,
W203845079390001,320,Maharashtra,Chandrapur,NAGBHIR,Mohadi Mokasa,79.65,20.64583333,2022,7.34,1413.0,0,280.7,255.2,51.0,68.1,,435.0,102.2,43.7,98.7,34.5,1.34,,
W202222079335201,321,Maharashtra,Chandrapur,SINDEWAHI,Alesur,79.56444444,20.37277778,2022,7.8,1400.0,0,469.9,195.0,39.3,19.0,,475.0,90.2,60.8,102.2,4.4,0.75,,
W195955079532101,322,Maharashtra,Chandrapur,SINDEWAHI,Sakhri,79.88916667,19.99861111,2022,7.9,814.7,0,384.4,46.1,17.0,10.4,,180.0,42.1,18.2,99.0,1.4,2.78,,
W194243079440701,323,Maharashtra,Chandrapur,GONDPIPRI,Navegaon-1,79.73527778,19.71194444,2022,7.99,937.2,0,421.0,31.9,47.5,40.2,,240.0,18.0,47.4,103.4,0.7,2.66,,
W194709079221701,324,Maharashtra,Chandrapur,RAJURA,Rajura-1,79.37138889,19.78583333,2022,7.82,1619.0,0,628.5,180.8,22.0,15.0,,630.0,54.1,120.3,71.9,7.1,2.79,,
W194409079101201,325,Maharashtra,Chandrapur,RAJURA,Gadchandur-1,79.17,19.73583333,2022,7.52,877.5,0,195.3,138.3,52.4,23.8,,345.0,64.1,45.0,36.2,2.7,1.01,,
W194151079202701,326,Maharashtra,Chandrapur,RAJURA,Warur Road-1,79.34083333,19.6975,2022,7.81,1282.0,0,579.7,81.5,35.0,24.7,,405.0,20.0,86.3,103.5,4.0,1.89,,
W194451079030801,327,Maharashtra,Chandrapur,RAJURA,Wansadi-1,79.05222222,19.7475,2022,7.71,851.1,0,408.8,28.4,24.1,18.0,,250.0,36.1,38.9,74.6,10.7,2.38,,
W194322079413501,328,Maharashtra,Chandrapur,GONDPIPRI,Gondpimpri,79.69305556,19.72277778,2022,7.6,388.9,0,207.5,7.1,11.9,4.6,,170.0,12.0,34.0,8.1,1.9,0.94,,
W200627079194101,329,Maharashtra,Chandrapur,CHANDRAPUR,Agarjhari,79.32805556,20.10055556,2022,7.69,611.8,0,274.6,31.9,20.1,8.3,,205.0,52.1,18.2,11.9,42.1,0.62,,
W200255079183501,330,Maharashtra,Chandrapur,CHANDRAPUR,Padmapur-1,79.30972222,20.03472222,2022,7.45,467.3,0,115.9,53.2,35.0,38.6,,190.0,38.1,23.1,17.3,6.0,0.46,,
W195220079375601,331,Maharashtra,Chandrapur,GONDPIPRI,Pombhurna,79.63222222,19.87222222,2022,7.44,476.4,0,225.8,17.7,12.7,6.8,,200.0,48.1,19.4,11.5,11.2,0.68,,
W194436079145801,332,Maharashtra,Chandrapur,RAJURA,Chandanvahi,79.24944444,19.74333333,2022,7.72,731.5,0,329.5,49.6,37.1,44.6,,275.0,48.1,37.7,36.4,37.8,0.65,,
W194630079080901,333,Maharashtra,Chandrapur,RAJURA,Awarpur,79.13583333,19.775,2022,7.65,349.3,0,164.8,14.2,9.7,3.9,,140.0,28.1,17.0,14.0,1.8,0.7,,
W193632079035801,334,Maharashtra,Chandrapur,RAJURA,Jivati,79.05222222,19.60888889,2022,7.48,903.2,0,274.6,95.7,37.1,68.5,,310.0,72.1,31.6,60.3,4.1,0.69,,
W201317079530601,335,Maharashtra,Chandrapur,SINDEWAHI,Meha Bk,79.885,20.22138889,2022,7.67,1298.0,0,305.1,244.6,40.8,5.1,,440.0,64.1,68.0,56.4,43.5,0.7,,
W201240079472701,336,Maharashtra,Chandrapur,SINDEWAHI,Tambegadi Mendha,79.79083333,20.21111111,2022,7.43,1797.0,0,347.8,351.0,54.7,70.7,,715.0,54.1,140.9,81.0,2.8,0.82,,
W202434079114701,337,Maharashtra,Chandrapur,WARORA,Ralegaon-1,79.19638889,20.40944444,2022,7.99,2001.0,0,585.8,244.6,94.0,77.5,,220.0,30.1,35.2,365.6,2.4,2.38,,
W201750078531101,338,Maharashtra,Chandrapur,WARORA,Wandhali-1,78.88638889,20.29722222,2022,8.0,1748.0,0,518.7,120.5,279.4,11.9,,210.0,12.0,43.7,300.1,2.6,1.44,,
W201532079140501,339,Maharashtra,Chandrapur,WARORA,Anandwan,79.23472222,20.25888889,2022,7.74,1098.0,0,445.4,99.3,40.0,6.3,,350.0,28.1,68.0,94.4,3.3,4.68,,
W201845079375101,340,Maharashtra,Chandrapur,SINDEWAHI,Ladbori,,,2022,7.82,2140.0,0,683.4,294.2,45.3,80.3,,390.0,8.0,89.9,310.7,3.5,0.81,,
W201613079440501,341,Maharashtra,Chandrapur,SINDEWAHI,Maregaon,,,2022,7.41,726.4,0,158.7,95.7,29.1,76.2,,260.0,30.1,45.0,26.3,27.1,1.22,,
W205700074073001,342,Maharashtra,Dhule,SAKRI,Pimpalner,74.11666667,20.95,2022,7.54,569.8,0,286.8,31.9,16.9,42.8,,270.0,66.1,25.5,20.3,0.8,0.64,,
W205100074470001,343,Maharashtra,Dhule,DHULE,Avdhan,74.78333333,20.85,2022,7.5,2418.0,0,341.7,467.9,249.7,35.0,,720.0,164.3,75.3,172.3,47.8,0.53,,
W211300074490001,344,Maharashtra,Dhule,SHINDKHEDE,Nardana,74.81666667,21.21666667,2022,7.75,2999.0,0,811.6,560.1,73.7,28.9,,968.0,188.4,121.0,206.6,33.2,0.62,,
W211600075063201,345,Maharashtra,Dhule,Shirpur,Hisala,75.10055556,21.26666667,2022,8.11,821.9,0,421.0,67.4,24.1,54.1,,345.0,40.1,59.5,61.7,2.8,0.66,,
W205300074570001,346,Maharashtra,Dhule,DHULE,Mukti,74.95,20.88333333,2022,7.8,2506.0,0,713.9,358.0,120.7,74.8,,550.0,84.2,82.6,300.5,6.3,1.02,,
W211100074410001,347,Maharashtra,Dhule,SHINDKHEDE,Chimthane,74.68333333,21.18333333,2022,8.02,2275.0,0,555.3,358.0,141.9,64.8,,725.0,160.3,79.0,153.5,15.1,0.61,,
W205820074264001,348,Maharashtra,Dhule,SAKRI,Ichhapur,74.44444444,20.97222222,2022,8.27,912.6,0,366.1,63.8,36.9,61.4,,275.0,56.1,32.8,77.4,0.9,0.99,,
W211445074381501,349,Maharashtra,Dhule,SHINDKHEDE,Methi,74.6375,21.24583333,2022,7.76,2059.0,0,396.6,333.2,159.6,80.2,,655.0,116.2,88.7,182.3,1.6,0.51,,
W204930074360001,350,Maharashtra,Dhule,DHULE,Ajnale,74.6,20.825,2022,8.17,1576.0,0,378.3,212.7,134.8,13.0,,460.0,72.1,68.0,111.9,7.1,0.6,,
W204930074490001,351,Maharashtra,Dhule,DHULE,Narwhal,74.81666667,20.825,2022,8.34,581.8,36,244.1,31.9,12.4,10.3,,235.0,42.1,31.6,33.4,1.3,0.77,,
W213130075025001,352,Maharashtra,Dhule,Shirpur,Palasner,75.04722222,21.525,2022,8.05,2079.0,0,732.2,251.7,68.3,10.0,,665.0,90.2,106.9,147.2,38.7,0.67,,
W205700073580001,353,Maharashtra,Dhule,SAKRI,Burdi Pada,73.96666667,20.95,2022,8.49,356.8,36,85.4,21.3,5.9,20.2,,135.0,38.1,9.7,15.4,0.6,0.43,,
W204342074420001,354,Maharashtra,Dhule,DHULE,Purmepada(pur),74.7,20.72833333,2022,8.21,2126.0,0,695.6,202.1,147.6,70.0,,420.0,72.1,58.3,271.1,11.4,0.76,,
W205415074460001,355,Maharashtra,Dhule,DHULE,Dhule,74.76666667,20.90416667,2022,8.45,1852.0,54,414.9,234.0,64.3,70.5,,170.0,30.1,23.1,327.0,6.0,1.16,,
W204915074444501,356,Maharashtra,Dhule,DHULE,Laling,74.74583333,20.82083333,2022,8.03,494.7,0,238.0,31.9,13.8,13.8,,200.0,56.1,14.6,19.9,1.9,0.43,,
W205900074190002,357,Maharashtra,Dhule,SAKRI,Sakri2,74.31666667,20.98333333,2022,8.0,1895.0,0,585.8,223.3,79.8,73.7,,475.0,64.1,76.5,189.5,2.2,1.15,,
W211925074342401,358,Maharashtra,Dhule,SHINDKHEDE,Dondaicha-1,74.57333333,21.32361111,2022,8.22,2012.0,0,591.9,265.9,74.8,69.6,,340.0,50.1,52.2,301.0,1.9,0.84,,
W205610074305301,359,Maharashtra,Dhule,DHULE,Ner-1,74.51472222,20.93611111,2022,8.02,2643.0,0,524.8,450.2,157.8,62.5,,745.0,80.2,132.4,228.3,1.1,0.75,,
W212526074585301,360,Maharashtra,Dhule,SHIRPUR,Hadakhed,74.98138889,21.42388889,2022,7.46,1107.0,0,372.2,124.1,64.9,56.9,,355.0,92.2,30.4,94.1,0.5,0.61,,
W210923074353301,361,Maharashtra,Dhule,SHINDKHEDE,Shewade,74.5925,21.15055556,2022,7.9,1177.0,0,353.9,134.7,57.2,65.5,,345.0,56.1,49.8,99.1,2.9,0.7,,
W210846074251901,362,Maharashtra,Dhule,SAKRI,Dusane,74.42194444,21.13444444,2022,7.94,653.7,0,244.1,60.3,34.0,25.2,,205.0,40.1,25.5,51.1,2.3,0.74,,
W210600074194901,363,Maharashtra,Dhule,SAKRI,Nizampur,74.33027778,21.1,2022,7.94,606.3,0,274.6,31.9,27.8,28.6,,220.0,56.1,19.4,37.9,0.5,0.93,,
W204305074495201,364,Maharashtra,Dhule,DHULE,Borkund,74.83111111,20.71805556,2022,7.88,1864.0,0,604.1,195.0,88.2,69.5,,550.0,78.2,86.3,137.9,2.5,1.05,,
W205324074501701,365,Maharashtra,Dhule,DHULE,Phagne,74.83805556,20.89,2022,7.52,2793.0,0,427.1,638.1,86.9,68.6,,915.0,52.1,190.8,178.4,3.5,0.65,,
W211746075010101,366,Maharashtra,Dhule,Shirpur,Saver,75.01694444,21.29611111,2022,7.95,925.1,0,268.5,113.4,43.9,45.2,,335.0,58.1,46.2,46.9,1.0,0.75,,
W205427074355401,367,Maharashtra,Dhule,DHULE,Kusumba,74.59833333,20.9075,2022,8.07,1793.0,0,732.2,163.1,60.0,57.1,,250.0,40.1,36.5,316.1,3.0,1.41,,
W212738074535901,368,Maharashtra,Dhule,Shirpur,Samaryapada,74.89972222,21.46055556,2022,7.72,914.8,0,305.1,88.6,51.4,62.0,,345.0,58.1,48.6,48.8,0.8,1.05,,
W205525074223801,369,Maharashtra,Dhule,SAKRI,Dhamnar,74.37722222,20.92361111,2022,7.75,1378.0,0,390.5,156.0,63.4,64.7,,425.0,66.1,63.2,98.6,0.6,0.75,,
W212016074293301,370,Maharashtra,Dhule,SHINDKHEDE,Dhavda,74.4925,21.33777778,2022,7.79,3570.0,0,512.6,592.0,452.8,84.1,,1030.0,124.2,175.0,350.9,2.5,0.97,,
W205657074155801,371,Maharashtra,Dhule,SAKRI,Malpur_Kasare,74.26611111,20.94916667,2022,8.09,925.6,0,378.3,81.5,35.2,27.2,,250.0,40.1,36.5,120.3,1.6,0.78,,
W210225074465301,372,Maharashtra,Dhule,DHULE,Sarvad,74.78138889,21.04,2022,7.69,2152.0,0,433.2,354.5,161.4,80.3,,635.0,88.2,100.8,193.4,3.2,0.62,,
W193600079510001,373,Maharashtra,Gadchiroli,CHAMORSHI,Chaudampalli,79.85,19.6,2022,7.84,2343.0,0,390.5,276.5,250.1,132.5,,650.0,68.1,116.6,230.5,3.3,1.77,,
W185700079590001,374,Maharashtra,Gadchiroli,SIRONCHA,Bamni,79.98333333,18.95,2022,7.42,1442.0,0,292.9,184.3,130.8,95.6,,495.0,146.3,31.6,78.0,18.6,1.02,,
W191000080090001,375,Maharashtra,Gadchiroli,Aheri,Repanpalli,80.15,19.16666667,2022,7.65,1061.0,0,506.5,39.0,34.6,40.3,,395.0,46.1,68.0,64.4,3.1,1.49,,
W193000079570001,376,Maharashtra,Gadchiroli,CHAMORSHI,Bori,79.95,19.5,2022,7.55,1680.0,0,408.8,202.1,96.1,122.7,,625.0,160.3,54.7,94.7,6.0,0.62,,
W195600079530001,377,Maharashtra,Gadchiroli,CHAMORSHI,Chamorshi,79.88333333,19.93333333,2022,7.56,678.4,0,189.2,67.4,50.3,27.5,,290.0,46.1,42.5,17.8,1.1,1.29,,
W201230080103001,378,Maharashtra,Gadchiroli,DHANORA,Chatgaon,80.175,20.20833333,2022,7.62,1463.0,0,372.2,191.4,57.5,120.4,,340.0,108.2,17.0,99.1,117.9,0.98,,
W201100080003001,379,Maharashtra,Gadchiroli,GADCHIROLI,Gadchiroli,80.00833333,20.18333333,2022,7.44,681.8,0,115.9,120.5,52.6,21.1,,255.0,86.2,9.7,39.5,2.0,0.6,,
W203700080123001,380,Maharashtra,Gadchiroli,KURKHEDA,Kurkhera,80.20833333,20.61666667,2022,7.24,651.2,0,140.3,109.9,18.8,41.4,,240.0,58.1,23.1,26.7,13.1,0.5,,
W193600080140001,381,Maharashtra,Gadchiroli,Etapalli,Itapalli,80.23333333,19.6,2022,7.58,756.4,0,250.2,67.4,28.0,64.2,,295.0,56.1,37.7,38.9,0.6,0.92,,
W190300080040001,382,Maharashtra,Gadchiroli,AHERI,Umanur,80.06666667,19.05,2022,7.65,847.2,0,231.9,78.0,55.9,94.4,,305.0,40.1,49.8,53.9,1.8,0.8,,
W203700079580001,383,Maharashtra,Gadchiroli,ARMORI,Wadsa,79.96666667,20.61666667,2022,7.58,883.4,0,305.1,102.8,37.1,18.2,,360.0,70.1,45.0,29.6,3.8,0.83,,
W201830079590001,384,Maharashtra,Gadchiroli,GADCHIROLI,Porla,80.6425,20.50916667,2022,7.59,738.8,0,262.4,74.4,27.0,20.8,,265.0,66.1,24.3,46.8,2.1,0.96,,
W195900079580001,385,Maharashtra,Gadchiroli,CHAMORSHI,Talodhi Rampur,79.96666667,19.98333333,2022,7.73,637.9,0,219.7,78.0,31.0,2.8,,225.0,46.1,26.7,43.2,2.9,0.77,,
W193200080040001,386,Maharashtra,Gadchiroli,AHERI,Yelgur Tola,80.06666667,19.53333333,2022,7.7,873.8,0,414.9,46.1,27.6,8.9,,315.0,66.1,36.5,51.7,3.2,1.1,,
W203300080160001,387,Maharashtra,Gadchiroli,KURKHEDA,Chandona Tola,80.26666667,20.55,2022,7.18,910.8,0,213.6,102.8,45.1,80.2,,375.0,60.1,54.7,33.4,1.1,0.83,,
W191700080050001,388,Maharashtra,Gadchiroli,AHERI,Timiram,80.08333333,19.28333333,2022,7.43,898.5,0,366.1,53.2,33.5,40.5,,325.0,56.1,45.0,56.9,0.6,1.2,,
W202600080053001,389,Maharashtra,Gadchiroli,ARMORI,Wairagarh,80.09166667,20.43333333,2022,7.5,868.2,0,335.6,85.1,29.4,12.1,,365.0,70.1,46.2,28.6,5.9,0.84,,
W194100079473001,390,Maharashtra,Gadchiroli,CHAMORSHI,Ashti,79.79166667,19.68333333,2022,7.32,1180.0,0,219.7,177.3,78.1,65.2,,390.0,20.0,82.6,75.0,1.9,0.74,,
W194730079590001,391,Maharashtra,Gadchiroli,CHAMORSHI,Ghot,79.98333333,19.79166667,2022,7.28,1236.0,0,134.2,273.0,74.8,49.5,,485.0,28.1,100.8,54.4,2.7,0.72,,
W201600080180001,392,Maharashtra,Gadchiroli,DHANORA,Dhanora,80.3,20.26666667,2022,7.35,566.1,0,195.3,74.4,13.7,9.1,,210.0,50.1,20.7,33.7,2.6,0.53,,
W191800080020001,393,Maharashtra,Gadchiroli,AHERI,Nandigaon,80.03333333,19.3,2022,7.78,1028.0,0,366.1,67.4,65.4,77.5,,420.0,34.1,81.4,42.3,1.0,1.04,,
W200355080000501,394,Maharashtra,Gadchiroli,GADCHIROLI,Govindpur,80.00138889,20.06527778,2022,7.28,1929.0,0,384.4,351.0,88.2,80.9,,685.0,100.2,105.7,125.6,3.3,0.65,,
W202050080105501,395,Maharashtra,Gadchiroli,DHANORA,Rangi,80.18194444,20.34722222,2022,7.6,732.4,0,134.2,92.2,22.9,109.3,,250.0,40.1,36.5,45.3,2.3,0.57,,
W203430079581501,396,Maharashtra,Gadchiroli,ARMORI,Khondala,79.97083333,20.575,2022,7.68,646.8,0,183.1,113.4,11.6,2.9,,200.0,26.1,32.8,53.3,6.2,0.53,,
W190621080071301,397,Maharashtra,Gadchiroli,Aheri,Govindgaon,80.12027778,19.10583333,2022,7.66,1075.0,0,402.7,56.7,79.7,64.1,,415.0,28.1,83.8,52.5,1.9,1.06,,
W193055080092601,398,Maharashtra,Gadchiroli,AHERI,Elchil,80.15166667,19.51527778,2022,7.67,1034.0,0,329.5,92.2,55.6,80.8,,385.0,50.1,63.2,54.8,1.3,0.82,,
W203738080022601,399,Maharashtra,Gadchiroli,ARMORI,Shankarpur,80.035,20.62722222,2022,7.34,1018.0,0,164.8,163.1,61.1,77.8,,390.0,104.2,31.6,52.2,1.9,0.72,,
W202600080110001,400,Maharashtra,Gadchiroli,ARMORI,Delanwadi,80.18333333,20.43333333,2022,7.65,559.9,0,195.3,60.3,29.3,7.7,,200.0,50.1,18.2,27.5,13.9,0.78,,
W194055079595001,401,Maharashtra,Gadchiroli,CHAMORSHI,Mulchera,79.99722222,19.68194444,2022,7.81,452.7,0,183.1,39.0,18.4,5.7,,150.0,38.1,13.4,33.2,4.6,1.09,,
W194550079485201,402,Maharashtra,Gadchiroli,CHAMORSHI,Konsari,79.81444444,19.76388889,2022,7.82,1310.0,0,366.1,191.4,66.3,32.2,,240.0,50.1,27.9,73.2,201.7,0.6,,
W203908080100501,403,Maharashtra,Gadchiroli,ARMORI,Vihirgaon Kukdi,80.16805556,20.65222222,2022,7.42,1092.0,0,305.1,163.1,40.7,46.4,,420.0,78.2,54.7,46.6,18.2,0.73,,
W203710080123001,404,Maharashtra,Gadchiroli,KURKHEDA,Uradi,80.20833333,20.61944444,2022,7.72,822.4,0,317.3,78.0,10.0,26.9,,245.0,50.1,29.2,38.0,68.7,0.69,,
W201821080075401,405,Maharashtra,Gadchiroli,GADCHIROLI,Maregaon-1,80.11777778,20.30583333,2022,7.57,953.1,0,274.6,109.9,21.2,81.4,,290.0,30.1,52.2,16.5,111.4,0.66,,
W202803079591201,406,Maharashtra,Gadchiroli,ARMORI,Armori-1,79.98666667,20.4675,2022,7.7,1016.0,0,353.9,113.4,18.4,43.0,,215.0,22.0,38.9,78.3,91.4,0.76,,
W202154079592301,407,Maharashtra,Gadchiroli,ARMORI,Kitadi,,,2022,7.78,2035.0,0,488.2,340.3,37.6,129.2,,725.0,12.0,168.9,90.4,80.2,0.87,,
W212230080230001,408,Maharashtra,Gondia,AMGAON,Amgaon,80.38333333,21.375,2022,7.34,1477.0,0,353.9,276.5,55.0,5.1,,490.0,66.1,79.0,101.2,3.9,0.99,,
W211330080123001,409,Maharashtra,Gondia,GOREGAON,Murdoli,80.20833333,21.225,2022,7.49,1062.0,0,311.2,131.2,51.5,33.4,,295.0,38.1,48.6,100.4,0.9,1.55,,
W205435079562501,410,Maharashtra,Gondia,ARJUNI MORGAON,Salebardi,79.94027778,20.90972222,2022,7.41,1212.0,0,323.4,156.0,55.8,68.7,,490.0,60.1,82.6,49.1,1.3,1.35,,
W212000080130001,411,Maharashtra,Gondia,GOREGAON,Goregaon,80.21666667,21.33333333,2022,7.63,729.2,0,262.4,85.1,20.0,12.0,,245.0,54.1,26.7,48.0,12.8,1.03,,
W212400079560001,412,Maharashtra,Gondia,TIRORA,Tiroda,79.93333333,21.4,2022,7.85,1070.0,0,323.4,120.5,69.0,39.8,,335.0,56.1,47.4,87.5,4.1,1.17,,
W205500080050001,413,Maharashtra,Gondia,ARJUNI MORGAON,Navegaon,80.08333333,20.91666667,2022,7.86,674.9,0,286.8,24.8,63.2,3.6,,240.0,38.1,35.2,43.6,0.6,0.9,,
W213650080145001,414,Maharashtra,Gondia,GONDIYA,Rajegaon,80.24722222,21.61388889,2022,7.68,1055.0,0,244.1,148.9,62.9,57.5,,225.0,36.1,32.8,93.7,73.7,0.85,,
W212900080160001,415,Maharashtra,Gondia,GONDIYA,Asoli,80.26666667,21.48333333,2022,7.85,176.4,0,48.8,21.3,3.8,20.3,,35.0,10.0,2.4,21.3,6.9,0.5,,
W212945080013601,416,Maharashtra,Gondia,TIRORA,Sejgaon,80.01833333,21.49583333,2022,7.62,1093.0,0,305.1,131.2,51.0,66.3,,385.0,60.1,57.1,68.8,1.8,1.17,,
W210430080053001,417,Maharashtra,Gondia,DEORI,Sondad,80.09166667,21.075,2022,7.77,489.2,0,244.1,24.8,18.6,4.4,,195.0,26.1,31.6,26.2,1.2,1.63,,
W212047079491801,418,Maharashtra,Gondia,TIRORA,Navegaon II (KHURD),79.82166667,21.34638889,2022,7.37,1029.0,0,103.7,212.7,72.5,58.7,,360.0,50.1,57.1,65.4,3.2,1.45,,
W212748080215501,419,Maharashtra,Gondia,AMGAON,Kalimati,80.36527778,21.46333333,2022,7.79,1085.0,0,341.7,141.8,41.6,20.7,,300.0,42.1,47.4,103.7,3.1,1.37,,
W210433080220001,420,Maharashtra,Gondia,DEORI,Deori-1,80.36666667,21.07583333,2022,7.66,601.6,0,152.6,67.4,45.8,43.7,,170.0,28.1,24.3,46.4,21.6,0.6,,
W211612080270001,421,Maharashtra,Gondia,SALEKASA,Sategaon-Sakaritola,80.45,21.27,2022,7.62,423.3,0,115.9,49.6,25.3,23.3,,115.0,20.0,15.8,33.7,14.8,0.69,,
W212508080141301,422,Maharashtra,Gondia,GONDIYA,Khamari,80.23694444,21.41888889,2022,7.32,1244.0,0,122.0,258.8,84.3,79.6,,290.0,46.1,42.5,85.0,102.7,0.68,,
W204724079575301,423,Maharashtra,Gondia,ARJUNI MORGAON,Dhabetekdi,79.96472222,20.79,2022,7.27,1350.0,0,122.0,301.3,87.7,79.7,,470.0,64.1,75.3,73.2,33.5,1.65,,
W195600077090001,424,Maharashtra,Hingoli,HINGOLI,Kanhergaon,77.15,19.93333333,2022,7.73,603.2,0,256.3,39.0,28.9,12.0,,245.0,30.1,41.3,28.2,0.5,0.74,,
W194515077005001,425,Maharashtra,Hingoli,HINGOLI,Narsi,77.01388889,19.75416667,2022,8.21,952.4,0,231.9,152.4,32.4,16.7,,75.0,20.0,6.1,182.8,2.3,1.68,,
W191600077080001,426,Maharashtra,Hingoli,BASMATH,Babulgaon,77.13333333,19.26666667,2022,7.54,558.2,0,219.7,46.1,25.1,7.5,,205.0,40.1,25.5,28.6,3.3,0.76,,
W194900076520001,427,Maharashtra,Hingoli,HINGOLI,Kolsa,76.86666667,19.81666667,2022,7.81,673.8,0,225.8,46.1,29.2,79.6,,240.0,50.1,27.9,45.0,1.2,0.76,,
W194600076480001,428,Maharashtra,Hingoli,HINGOLI,Hatta,76.8,19.76666667,2022,7.98,670.1,0,317.3,21.3,19.6,30.6,,265.0,48.1,35.2,31.2,1.4,0.63,,
W190840077091801,429,Maharashtra,Hingoli,BASMATH,Alegaon (Old),77.15222222,19.13444444,2022,7.72,506.8,0,219.7,31.9,22.1,8.7,,190.0,30.1,27.9,26.0,3.9,0.56,,
W193230077023002,430,Maharashtra,Hingoli,HINGOLI,Aundha nagnath,77.03333333,19.54166667,2022,7.44,812.8,0,329.5,56.7,30.0,36.3,,285.0,50.1,38.9,36.2,25.7,0.38,,
W192621076573001,431,Maharashtra,Hingoli,BASMATH,Barashiv-1 (Jawla bazar,76.95833333,19.43916667,2022,7.76,518.3,0,183.1,42.5,31.2,13.5,,190.0,50.1,15.8,30.8,1.0,0.48,,
W192600077090002,432,Maharashtra,Hingoli,BASMATH,Chondi Amba-1,77.15,19.43333333,2022,7.71,586.5,0,183.1,53.2,36.4,46.4,,240.0,70.1,15.8,23.1,0.7,0.66,,
W192000076590002,433,Maharashtra,Hingoli,BASMATH,Aral-1,76.98333333,19.33333333,2022,7.89,649.3,0,189.2,70.9,27.8,46.0,,255.0,52.1,30.4,29.9,1.9,0.64,,
W193813077045901,434,Maharashtra,Hingoli,HINGOLI,Hivra,77.08305556,19.63694444,2022,8.27,757.8,0,213.6,63.8,36.8,81.0,,160.0,22.0,25.5,100.4,1.5,0.96,,
W194134077152901,435,Maharashtra,Hingoli,KALAMNURI,Umara,77.25805556,19.69277778,2022,7.82,800.6,0,378.3,24.8,24.6,37.6,,335.0,54.1,48.6,26.7,0.4,0.7,,
W192239077222901,436,Maharashtra,Hingoli,KALAMNURI,Dongarkada,77.37472222,19.3775,2022,8.18,447.6,0,122.0,56.7,31.1,7.4,,45.0,10.0,4.9,81.0,0.4,2.18,,
W191914076573701,437,Maharashtra,Hingoli,BASMATH,Chikhli,76.96027778,19.32055556,2022,7.75,823.8,0,292.9,74.4,32.0,38.1,,205.0,36.1,27.9,93.1,1.2,1.07,,
W191846077135901,438,Maharashtra,Hingoli,BASMATH,Palasgaon,77.23305556,19.31277778,2022,7.73,808.4,0,158.7,141.8,32.6,43.8,,280.0,52.1,36.5,49.9,2.2,0.77,,
W192143077112501,439,Maharashtra,Hingoli,BASMATH,Kautha-Khudnapur,77.19027778,19.36194444,2022,7.76,845.0,0,244.1,124.1,20.9,38.0,,305.0,52.1,42.5,52.7,4.0,0.71,,
W192420077135101,440,Maharashtra,Hingoli,BASMATH,Kurundha,77.23083333,19.40555556,2022,7.79,826.3,0,305.1,81.5,34.0,26.9,,250.0,40.1,36.5,74.3,1.1,0.92,,
W193254077162901,441,Maharashtra,Hingoli,KALAMNURI,Bolda,77.27472222,19.54833333,2022,7.77,910.3,0,195.3,177.3,22.7,24.7,,200.0,36.1,26.7,111.5,1.5,0.95,,
W194942076513401,442,Maharashtra,Hingoli,KALAMNURI,Khutha,76.85944444,19.82833333,2022,7.79,1623.0,0,414.9,312.0,18.1,14.6,,365.0,46.1,60.8,204.2,5.9,1.36,,
W194615076572501,443,Maharashtra,Hingoli,KALAMNURI,Jambharun-Rodge,76.95694444,19.77083333,2022,8.06,632.8,0,195.3,67.4,27.2,39.5,,75.0,14.0,9.7,109.5,1.8,0.6,,
W194414077033901,444,Maharashtra,Hingoli,HINGOLI,Sawad,77.0525,19.73722222,2022,7.86,689.7,0,244.1,49.6,29.5,45.4,,150.0,20.0,24.3,78.7,0.9,1.68,,
W193627077230201,445,Maharashtra,Hingoli,KALAMNURI,Salwa,77.38388889,19.6075,2022,7.89,657.8,0,189.2,67.4,24.1,51.6,,240.0,52.1,26.7,40.4,1.1,1.06,,
W193230077244001,446,Maharashtra,Hingoli,KALAMNURI,Balapur Akhada-1,77.41111111,19.54166667,2022,7.79,810.3,0,250.2,106.4,17.7,35.2,,280.0,46.1,40.1,53.7,3.2,1.29,,
W193114077202401,447,Maharashtra,Hingoli,KALAMNURI,Toha,77.34,19.52055556,2022,7.79,1088.0,0,445.4,85.1,21.3,44.0,,185.0,24.0,30.4,158.0,13.3,0.72,,
W194231077091501,448,Maharashtra,Hingoli,HINGOLI,Hingoli-1,77.15138889,19.70861111,2022,8.05,982.5,0,408.8,81.5,29.8,10.2,,335.0,60.1,45.0,70.9,1.1,0.95,,
W192701077081601,449,Maharashtra,Hingoli,BASMATH,Vai Gorakhnath,77.135,19.45027778,2022,8.01,527.4,0,207.5,31.9,20.3,38.3,,235.0,42.1,31.6,15.4,0.4,0.58,,
W191935077073301,450,Maharashtra,Hingoli,BASMATH,Basmat Shivar,77.1175,19.32638889,2022,7.83,917.0,0,231.9,163.1,20.0,21.0,,255.0,52.1,30.4,87.5,1.9,0.76,,
W191011077082101,451,Maharashtra,Hingoli,BASMATH,Chudawa-1,77.13916667,19.16972222,2022,7.93,2330.0,0,414.9,418.3,112.8,74.6,,625.0,72.1,108.1,220.7,47.9,0.78,,
W194802076530501,452,Maharashtra,Hingoli,BASMATH,Songaon,76.88472222,19.80055556,2022,7.8,947.0,0,274.6,46.1,125.2,74.5,,215.0,32.1,32.8,111.9,4.1,1.34,,
W211000075513501,453,Maharashtra,Jalgaon,Yawal,Faizupur,75.85972222,21.16666667,2022,7.83,936.6,0,390.5,78.0,23.5,84.7,,310.0,42.1,49.8,92.8,0.6,0.42,,
W205500075200001,454,Maharashtra,Jalgaon,ERANDOL,Erandol,75.33333333,20.91666667,2022,7.19,1674.0,0,482.1,145.3,61.9,86.2,,620.0,106.2,86.3,71.1,1.2,0.35,,
W205300075590001,455,Maharashtra,Jalgaon,BHUSAWAL,Bodwad,75.98333333,20.88333333,2022,7.5,1226.0,0,323.4,156.0,58.5,90.1,,400.0,70.1,54.7,82.1,3.3,0.54,,
W205114075395001,456,Maharashtra,Jalgaon,JAMNER,Neri,75.66388889,20.85388889,2022,7.33,2650.0,0,250.2,698.4,71.5,88.1,,1100.0,180.4,158.0,82.6,0.7,0.46,,
W210110075160001,457,Maharashtra,Jalgaon,ERANDOL,Dharangaon,75.26666667,21.01694444,2022,7.44,1869.0,0,378.3,347.4,80.1,88.5,,505.0,88.2,69.3,174.6,3.9,0.69,,
W205130075013001,458,Maharashtra,Jalgaon,PAROLA,Mondhale,75.025,20.85833333,2022,7.78,841.3,0,457.7,67.4,20.3,8.4,,280.0,38.1,45.0,83.7,2.3,1.18,,
W203900075361501,459,Maharashtra,Jalgaon,JAMNER,Shendurni,75.60416667,20.65,2022,7.91,1290.0,0,433.2,127.6,60.2,82.1,,320.0,56.1,43.7,100.0,79.4,0.56,,
W204930075180001,460,Maharashtra,Jalgaon,ERANDOL,Kasoda,75.3,20.825,2022,7.83,2463.0,0,604.1,404.1,66.8,87.6,,690.0,86.2,115.4,204.8,4.5,0.79,,
W203025074541001,461,Maharashtra,Jalgaon,CHALISGAON,Adgaon,74.90277778,20.50694444,2022,7.48,1423.0,0,335.6,187.9,79.7,83.2,,525.0,78.2,80.2,58.8,0.8,0.61,,
W203450075103001,462,Maharashtra,Jalgaon,PACHORA,Pasardi,75.175,20.58055556,2022,7.84,1225.0,0,408.8,148.9,20.6,81.6,,425.0,56.1,69.3,89.3,2.9,0.46,,
W204015075491501,463,Maharashtra,Jalgaon,JAMNER,Vakdi,75.82083333,20.67083333,2022,7.47,1120.0,0,360.0,141.8,36.8,84.8,,365.0,54.1,55.9,84.2,11.0,0.44,,
W204350075060001,464,Maharashtra,Jalgaon,PAROLA,Talwade Kd,75.1,20.73055556,2022,7.9,695.0,0,250.2,42.5,41.6,61.4,,270.0,42.1,40.1,32.5,1.7,0.48,,
W202218075030801,465,Maharashtra,Jalgaon,CHALISGAON,Bodar,75.05222222,20.37166667,2022,7.76,727.0,0,262.4,92.2,29.9,13.3,,300.0,46.1,45.0,35.5,0.4,0.57,,
W211515075443001,466,Maharashtra,Jalgaon,Yawal,Dangarda,75.74166667,21.25416667,2022,7.72,745.3,0,384.4,28.4,16.7,43.8,,315.0,50.1,46.2,27.2,7.2,0.44,,
W210820075581001,467,Maharashtra,Jalgaon,Raver,Balvadi,75.96944444,21.13888889,2022,7.92,916.8,0,384.4,92.2,21.2,43.4,,350.0,56.1,51.0,56.8,0.9,0.44,,
W211140076071501,468,Maharashtra,Jalgaon,Edlabad,Narvel,76.12083333,21.19444444,2022,7.84,1504.0,0,469.9,159.5,46.5,90.1,,570.0,64.1,99.6,72.7,0.7,0.3,,
W210620076020001,469,Maharashtra,Jalgaon,Edlabad,Mendhoda,76.03333333,21.10555556,2022,7.57,1946.0,0,469.9,301.3,54.1,90.4,,705.0,86.2,119.1,89.9,6.5,0.28,,
W204130075484501,470,Maharashtra,Jalgaon,JAMNER,Shengola,75.8125,20.69166667,2022,7.55,907.4,0,244.1,109.9,64.5,70.9,,320.0,64.1,38.9,58.8,1.8,0.32,,
W205930075230001,471,Maharashtra,Jalgaon,ERANDOL,Pimpalkotha,75.38333333,20.99166667,2022,7.39,1922.0,0,390.5,319.1,61.9,87.3,,510.0,78.2,76.5,160.1,5.5,0.55,,
W204952075430001,472,Maharashtra,Jalgaon,JAMNER,Kekat Nimbhora,75.71666667,20.83111111,2022,7.54,1225.0,0,238.0,177.3,81.6,85.3,,395.0,56.1,62.0,89.8,1.1,0.48,,
W211450076020401,473,Maharashtra,Jalgaon,Raver,Raver1,76.03444444,21.24722222,2022,7.82,1181.0,0,366.1,148.9,41.0,63.2,,330.0,52.1,48.6,106.7,0.4,0.44,,
W210300076020001,474,Maharashtra,Jalgaon,Edlabad,Muktai Nagar-1,76.03333333,21.05,2022,7.96,750.4,0,305.1,88.6,27.3,5.6,,290.0,52.1,38.9,49.5,1.2,0.3,,
W203944075190901,475,Maharashtra,Jalgaon,PACHORA,Pachora-1,75.31916667,20.66222222,2022,7.67,919.9,0,353.9,74.4,47.9,37.6,,325.0,50.1,48.6,55.2,0.8,0.37,,
W205257075064701,476,Maharashtra,Jalgaon,PAROLA,Parola-1,75.10194444,20.8825,2022,7.8,2085.0,0,579.7,241.1,80.6,87.2,,510.0,84.2,72.9,178.3,16.9,0.54,,
W210935075415501,477,Maharashtra,Jalgaon,Yawal,Yawal-1,75.69861111,21.15083333,2022,7.88,1002.0,0,292.9,138.3,23.4,88.9,,360.0,62.1,49.8,68.4,0.9,0.34,,
W211048075445301,478,Maharashtra,Jalgaon,Yawal,Sangvi Bk,75.74805556,21.18,2022,7.69,935.4,0,317.3,106.4,21.0,86.7,,390.0,70.1,52.2,43.3,0.6,0.28,,
W211221075345501,479,Maharashtra,Jalgaon,Yawal,Kingaon,75.58194444,21.20583333,2022,7.65,979.6,0,329.5,99.3,21.5,84.1,,380.0,56.1,58.3,49.5,1.0,0.19,,
W204450075161801,480,Maharashtra,Jalgaon,ERANDOL,Pimpalkhede,75.27166667,20.74722222,2022,7.8,1263.0,0,378.3,138.3,58.5,90.8,,365.0,60.1,52.2,97.8,37.8,0.18,,
W205739075365901,481,Maharashtra,Jalgaon,JALGAON,Kusumbe-1,75.61638889,20.96083333,2022,7.6,821.9,0,256.3,95.7,43.3,23.9,,285.0,62.1,31.6,37.5,13.6,0.49,,
W204723075272001,482,Maharashtra,Jalgaon,PACHORA,Lasgaon,75.45555556,20.78972222,2022,7.61,2630.0,0,634.6,397.0,55.7,88.1,,740.0,84.2,128.8,201.5,12.0,0.53,,
W205951075542901,483,Maharashtra,Jalgaon,BHUSAWAL,Susari-Varangaon,75.90805556,20.9975,2022,7.79,1420.0,0,244.1,226.9,56.7,87.4,,370.0,44.1,63.2,108.7,1.0,0.55,,
W204802075473101,484,Maharashtra,Jalgaon,JAMNER,Jamner-1,75.79194444,20.80055556,2022,7.59,1920.0,0,329.5,304.9,64.8,89.6,,525.0,76.2,81.4,134.3,1.5,0.77,,
W205956075322601,485,Maharashtra,Jalgaon,JALGAON,Jalgaon - Harivitthal Na,75.54055556,20.99888889,2022,7.58,1003.0,0,360.0,102.8,51.7,67.8,,325.0,54.1,46.2,85.5,0.9,0.48,,
W210053075342301,486,Maharashtra,Jalgaon,JALGAON,Jalgaon - Balajipeth,75.57305556,21.01472222,2022,8.0,830.0,0,396.6,70.9,38.6,20.5,,215.0,36.1,30.4,83.6,52.5,0.59,,
W210006075342201,487,Maharashtra,Jalgaon,JALGAON,Jalgaon-Kasamwa,75.57277778,21.00166667,2022,7.96,1260.0,0,543.1,124.1,52.3,11.0,,320.0,52.1,46.2,150.5,11.9,0.5,,
W205941075340901,488,Maharashtra,Jalgaon,JALGAON,Jalgaon-Sindhi,75.56916667,20.99472222,2022,7.6,847.8,0,274.6,95.7,50.7,9.3,,260.0,44.1,36.5,64.8,0.8,0.64,,
W205916075340901,489,Maharashtra,Jalgaon,JALGAON,Jalgaon - Shivaji Udhyan,75.56916667,20.98777778,2022,7.86,1592.0,0,433.2,209.2,46.3,6.7,,515.0,96.2,66.8,71.8,4.2,0.48,,
W205617075521601,490,Maharashtra,Jalgaon,EDLABAD,Vichve,75.87111111,20.93805556,2022,7.89,659.3,0,219.7,81.5,35.2,8.5,,180.0,32.1,24.3,62.9,5.6,0.54,,
W205622075034001,491,Maharashtra,Jalgaon,EDLABAD,Sirsala,75.05,20.93944444,2022,7.62,912.9,0,329.5,85.1,51.2,65.6,,280.0,44.1,41.3,85.1,1.0,0.41,,
W204824075581301,492,Maharashtra,Jalgaon,BHUSAWAL,Jamthi,75.97027778,20.80666667,2022,7.41,1363.0,0,408.8,127.6,65.3,88.2,,475.0,82.2,65.6,67.6,1.8,0.5,,
W211229075530001,493,Maharashtra,Jalgaon,Raver,Khiroda-2,75.88333333,21.20805556,2022,8.05,768.5,0,353.9,28.4,18.1,40.5,,225.0,34.1,34.0,71.4,0.3,0.34,,
W211630076065801,494,Maharashtra,Jalgaon,Raver,Khanapur-1,76.10222222,21.275,2022,7.86,1456.0,0,537.0,124.1,47.9,80.2,,455.0,64.1,71.7,105.5,0.7,0.54,,
W211211075591701,495,Maharashtra,Jalgaon,Raver,Vivra Bk,75.98805556,21.20305556,2022,7.98,1234.0,0,360.0,127.6,32.2,86.1,,450.0,70.1,66.8,56.9,1.3,0.47,,
W211641075350701,496,Maharashtra,Jalgaon,Yawal,Waghijhira,75.58527778,21.27805556,2022,7.6,716.4,0,317.3,31.9,17.2,38.6,,280.0,50.1,37.7,25.2,0.7,0.21,,
W211017075374501,497,Maharashtra,Jalgaon,Yawal,Sakli-1,75.62916667,21.17138889,2022,7.76,566.6,0,238.0,39.0,9.8,25.5,,195.0,44.1,20.7,35.7,0.5,0.37,,
W204019075133201,498,Maharashtra,Jalgaon,BHADGAON,Bhadgaon-1,75.22555556,20.67194444,2022,7.91,1681.0,0,616.3,138.3,50.9,86.2,,290.0,26.1,54.7,224.0,1.4,0.27,,
W203920075271601,499,Maharashtra,Jalgaon,PACHORA,Varkhedi-1,75.97888889,20.96,2022,7.82,755.1,0,262.4,53.2,22.8,89.8,,290.0,34.1,49.8,34.2,0.6,0.5,,
W210243075043801,500,Maharashtra,Jalgaon,AMALNER,Amalner-1,75.07722222,21.04527778,2022,7.74,749.5,0,244.1,81.5,44.6,24.7,,265.0,36.1,42.5,45.3,0.5,0.55,,
W210340075124901,501,Maharashtra,Jalgaon,AMALNER,Bhadgaon-1,75.45444444,20.65555556,2022,7.3,2485.0,0,183.1,510.5,30.9,86.5,,825.0,110.2,133.7,58.0,1.0,0.61,,
W211251075161101,502,Maharashtra,Jalgaon,CHOPDA,Akhatwade,,,2022,7.87,2854.0,0,640.7,475.0,41.3,88.3,,495.0,74.1,75.3,362.8,1.6,0.46,,
W193600075470001,503,Maharashtra,Jalna,AMBAD,Ambad,75.78333333,19.6,2022,7.18,1425.0,0,323.4,187.9,110.1,45.5,,530.0,122.2,54.7,67.5,5.4,0.54,,
W201200076010001,504,Maharashtra,Jalna,JAFFERABAD,Jafrabad,76.01666667,20.2,2022,7.2,6381.0,0,994.6,1003.2,601.2,42.9,,2450.0,426.9,336.6,329.5,5.8,0.37,,
W201600076080001,505,Maharashtra,Jalna,JAFFERABAD,Warud,76.13333333,20.26666667,2022,7.7,1255.0,0,402.7,148.9,52.0,44.1,,420.0,74.1,57.1,82.2,1.6,0.46,,
W194900075590001,506,Maharashtra,Jalna,JALNA,Kalegaon,75.98333333,19.81666667,2022,7.93,669.8,0,250.2,60.3,32.2,9.7,,230.0,38.1,32.8,39.1,1.9,0.63,,
W192830076140001,507,Maharashtra,Jalna,PARTUR,Shreshti,76.23333333,19.475,2022,7.52,1904.0,0,402.7,152.4,274.7,80.4,,415.0,50.1,70.5,201.6,28.3,0.71,,
W202200075473001,508,Maharashtra,Jalna,BHOKARDAN,Wakdi,75.79166667,20.36666667,2022,7.53,2963.0,0,506.5,343.9,395.4,89.0,,735.0,116.2,108.1,165.9,166.1,0.33,,
W200300075535601,509,Maharashtra,Jalna,BHOKARDAN,Longaon,75.89888889,20.05,2022,7.8,1750.0,0,396.6,163.1,170.0,90.0,,640.0,100.2,94.8,94.8,6.3,0.58,,
W195500076022001,510,Maharashtra,Jalna,JALNA,Navha,76.03888889,19.91666667,2022,7.78,1020.0,0,323.4,81.5,50.2,64.1,,400.0,62.1,59.5,42.6,0.6,0.63,,
W194525075504001,511,Maharashtra,Jalna,JALNA,Samangaon,75.84444444,19.75694444,2022,7.63,735.8,0,274.6,60.3,40.6,5.3,,260.0,42.1,37.7,35.3,2.0,0.57,,
W200435075393001,512,Maharashtra,Jalna,BHOKARDAN,Talegaon,75.65833333,20.0675,2022,7.97,881.1,0,360.0,70.9,46.8,25.8,,200.0,34.1,27.9,59.0,88.1,0.62,,
W195300076264001,513,Maharashtra,Jalna,PARTUR,Talni,76.44444444,19.88333333,2022,7.68,2529.0,0,500.4,308.4,300.1,90.1,,560.0,74.1,91.1,245.0,115.7,0.38,,
W195211075424801,514,Maharashtra,Jalna,JALNA,Badnapur,75.71333333,19.86972222,2022,8.02,830.7,0,378.3,67.4,31.2,16.8,,255.0,46.1,34.0,70.4,11.6,0.65,,
W195903075520901,515,Maharashtra,Jalna,JALNA,Bavne Pangri,75.86916667,19.98416667,2022,7.69,866.5,0,305.1,56.7,31.2,67.0,,340.0,52.1,51.0,38.3,0.9,0.64,,
W200110075493901,516,Maharashtra,Jalna,JALNA,Chanegaon,75.8275,20.01944444,2022,7.74,1113.0,0,329.5,109.9,70.3,75.6,,380.0,62.1,54.7,57.9,25.8,0.66,,
W193323075535201,517,Maharashtra,Jalna,AMBAD,Bondalpuri,75.89777778,19.55638889,2022,7.76,537.8,0,244.1,21.3,17.7,37.8,,220.0,36.1,31.6,20.8,0.8,0.66,,
W201537075512401,518,Maharashtra,Jalna,BHOKARDAN,Siphora,75.85666667,20.26027778,2022,7.61,1118.0,0,292.9,131.2,56.4,72.7,,420.0,72.1,58.3,44.7,1.8,0.47,,
W200343075505401,519,Maharashtra,Jalna,BHOKARDAN,Rajur,75.84833333,20.05111111,2022,7.58,684.4,0,244.1,81.5,28.9,7.8,,290.0,56.1,36.5,23.2,1.1,0.43,,
W203304075532801,520,Maharashtra,Jalna,BHOKARDAN,Pimpalgaon Renukai,75.89111111,20.55111111,2022,7.42,1374.0,0,341.7,180.8,76.8,75.4,,540.0,84.2,80.2,67.9,4.3,0.39,,
W200737075413501,521,Maharashtra,Jalna,BHOKARDAN,Hasnabad-1,75.69305556,20.12694444,2022,7.41,1633.0,0,250.2,322.6,80.2,67.1,,560.0,82.2,86.3,113.1,1.4,0.38,,
W194554076041401,522,Maharashtra,Jalna,JALNA,Utavad,76.06777778,19.765,2022,7.6,895.4,0,341.7,53.2,36.4,65.4,,330.0,48.1,51.0,49.5,1.1,0.48,,
W194445076220301,523,Maharashtra,Jalna,PARTUR,Dhoksal,76.3675,19.74583333,2022,7.83,1055.0,0,280.7,67.4,120.1,63.8,,450.0,66.1,69.3,36.2,1.6,0.5,,
W193506076133301,524,Maharashtra,Jalna,PARTUR,Partur-2,76.22583333,19.585,2022,7.65,827.8,0,244.1,70.9,59.0,81.5,,340.0,58.1,47.4,33.0,2.2,0.58,,
W193122075482601,525,Maharashtra,Jalna,AMBAD,Sukhapuri-1,75.80722222,19.52277778,2022,7.71,997.2,0,335.6,106.4,51.6,11.0,,245.0,42.1,34.0,109.5,3.9,0.77,,
W193103075393401,526,Maharashtra,Jalna,AMBAD,Dungaon-1,75.65944444,19.5175,2022,7.48,959.1,0,305.1,67.4,60.3,75.8,,335.0,58.1,46.2,53.0,1.2,0.65,,
W193651075440201,527,Maharashtra,Jalna,AMBAD,Shirner,75.73388889,19.61416667,2022,7.72,973.2,0,317.3,56.7,55.3,72.1,,375.0,64.1,52.2,28.9,0.8,0.64,,
W194341076081501,528,Maharashtra,Jalna,JALNA,Yenora Dhanora,76.13472222,19.72805556,2022,7.68,1621.0,0,360.0,187.9,202.5,65.7,,490.0,60.1,82.6,124.3,12.4,0.64,,
W195122075520001,529,Maharashtra,Jalna,JALNA,Jalna-1,75.86666667,19.85611111,2022,7.68,622.1,0,250.2,53.2,40.2,22.8,,275.0,50.1,36.5,21.5,0.9,0.41,,
W200712075503601,530,Maharashtra,Jalna,BHOKARDAN,Banegaon,75.84333333,20.12,2022,7.84,833.9,0,244.1,78.0,48.0,70.4,,335.0,62.1,43.7,33.4,1.1,0.47,,
W201140075494301,531,Maharashtra,Jalna,BHOKARDAN,Baranjala Lokhande,75.82861111,20.19444444,2022,7.84,1657.0,0,347.8,255.2,80.1,72.4,,385.0,60.1,57.1,169.7,2.0,1.12,,
W201503075461301,532,Maharashtra,Jalna,BHOKARDAN,Bhokardhan-2,75.77027778,20.25083333,2022,7.53,1410.0,0,335.6,173.7,68.2,69.3,,390.0,64.1,55.9,97.9,2.0,0.6,,
W201841075493101,533,Maharashtra,Jalna,BHOKARDAN,Danapur,75.82527778,20.31138889,2022,7.88,1064.0,0,323.4,92.2,50.8,70.0,,385.0,76.2,47.4,41.8,4.8,0.52,,
W195852075573001,534,Maharashtra,Jalna,JALNA,Pokhari Sindhkhed,75.95833333,19.98111111,2022,7.75,689.8,0,280.7,24.8,33.3,66.7,,285.0,50.1,38.9,27.4,1.1,0.65,,
W195611075555201,535,Maharashtra,Jalna,JALNA,Gondegaon-1,75.93111111,19.93638889,2022,7.82,1204.0,0,292.9,141.8,64.6,74.8,,500.0,80.2,72.9,32.0,2.5,0.53,,
W160700074120001,536,Maharashtra,Kolhapur,Ajra,Ajra,74.2,16.11666667,2022,6.5,333.6,0,91.5,35.5,12.2,42.5,,100.0,30.1,6.1,18.1,22.5,0.25,,
W164400074170001,537,Maharashtra,Kolhapur,Hatkalangale,Shiroli,74.28333333,16.73333333,2022,7.29,1026.0,0,280.7,152.4,80.0,22.7,,330.0,54.1,47.4,84.2,2.0,0.28,,
W162300074110001,538,Maharashtra,Kolhapur,Kagal,Murgud,74.18333333,16.38333333,2022,7.95,687.4,0,317.3,60.3,17.9,11.2,,260.0,48.1,34.0,46.7,13.6,0.31,,
W164000074290001,539,Maharashtra,Kolhapur,Shirol,Shiradwad,74.48333333,16.66666667,2022,7.54,1006.0,0,323.4,117.0,63.2,43.4,,310.0,70.1,32.8,88.3,1.8,0.23,,
W164900074060001,540,Maharashtra,Kolhapur,Panhala,Panhala,74.1,16.81666667,2022,7.71,286.7,0,97.6,31.9,11.5,24.6,,100.0,22.0,10.9,18.2,9.0,0.22,,
W155600074150001,541,Maharashtra,Kolhapur,Chandgad,Naganwadi,74.25,15.93333333,2022,7.8,90.01,0,48.8,10.6,3.4,2.6,,45.0,12.0,3.6,5.1,0.4,0.16,,
W165213074175101,542,Maharashtra,Kolhapur,Hatkalangale,Kini wathar,74.2975,16.87027778,2022,7.29,873.1,0,305.1,74.4,42.7,3.6,,290.0,36.1,48.6,50.5,2.0,0.5,,
W165804073482501,543,Maharashtra,Kolhapur,Shahuwadi,Amba,73.80694444,16.96777778,2022,7.51,158.6,0,73.2,10.6,8.1,12.5,,75.0,20.0,6.1,6.4,1.3,0.21,,
W165030074050001,544,Maharashtra,Kolhapur,Panhala,Paijarwadi,74.08333333,16.84166667,2022,7.43,585.1,0,292.9,39.0,4.6,16.8,,215.0,48.1,23.1,26.8,16.3,0.34,,
W163230073494601,545,Maharashtra,Kolhapur,Gagan-Bawada,Gagan bauda,73.82944444,16.54166667,2022,7.46,156.2,0,61.0,10.6,13.8,12.6,,65.0,18.0,4.9,7.1,7.0,0.16,,
W163830074163001,546,Maharashtra,Kolhapur,Karvir,Gokul shirgaon,74.275,16.64166667,2022,7.58,783.3,0,305.1,81.5,30.9,14.2,,300.0,48.1,43.7,36.4,1.0,0.51,,
W161400074030001,547,Maharashtra,Kolhapur,Bhudargad,Nitawade,74.05,16.23333333,2022,6.95,372.9,0,122.0,39.0,24.1,16.7,,125.0,22.0,17.0,14.2,25.1,0.32,,
W161530074151501,548,Maharashtra,Kolhapur,Ajra,Authur,74.25416667,16.25833333,2022,7.72,788.6,0,201.4,127.6,48.9,20.2,,270.0,48.1,36.5,59.0,14.5,0.31,,
W160324074195001,549,Maharashtra,Kolhapur,Gadhinglaj,Nesari,74.33055556,16.05055556,2022,7.78,223.1,0,61.0,28.4,11.6,22.6,,80.0,22.0,6.1,14.9,2.9,0.18,,
W155350074202501,550,Maharashtra,Kolhapur,Chandgad,Karve,74.34027778,15.89722222,2022,7.75,191.4,0,48.8,28.4,3.5,24.0,,70.0,16.0,7.3,12.8,0.7,0.14,,
W164652073591001,551,Maharashtra,Kolhapur,Panhala,Undri,73.98611111,16.78111111,2022,7.76,172.6,0,61.0,21.3,7.1,8.7,,65.0,18.0,4.9,8.3,3.6,0.13,,
W164234074100501,552,Maharashtra,Kolhapur,Karvir,Khupire,74.16805556,16.70944444,2022,7.76,689.3,0,292.9,78.0,29.3,3.9,,325.0,54.1,46.2,30.8,1.9,0.23,,
W162450074142001,553,Maharashtra,Kolhapur,Kagal,Surupali,74.23888889,16.41388889,2022,7.72,536.4,0,244.1,17.7,17.9,20.3,,195.0,34.1,26.7,23.2,1.9,0.5,,
W161750074130001,554,Maharashtra,Kolhapur,Bhudargad,Pimpalgaon,74.21666667,16.29722222,2022,7.94,611.5,0,225.8,46.1,20.2,19.4,,215.0,28.1,35.2,20.9,6.8,0.26,,
W162430073594501,555,Maharashtra,Kolhapur,Radhanagari,Radhanagari,73.99583333,16.40833333,2022,7.64,344.9,0,134.2,21.3,22.8,21.8,,125.0,22.0,17.0,16.3,10.2,0.17,,
W155203074140001,556,Maharashtra,Kolhapur,Chandgad,Patne,74.23333333,15.8675,2022,7.91,75.54,0,18.3,10.6,4.9,9.1,,30.0,6.0,3.6,4.3,1.4,0.12,,
W163825074104501,557,Maharashtra,Kolhapur,Karvir,Washi,74.17916667,16.64027778,2022,7.9,547.9,0,274.6,31.9,16.4,13.8,,230.0,36.1,34.0,29.3,0.9,0.33,,
W155015074223001,558,Maharashtra,Kolhapur,Chandgad,Surute,74.375,15.8375,2022,7.74,170.9,0,61.0,21.3,2.8,10.2,,70.0,18.0,6.1,8.5,1.5,0.17,,
W161010074281001,559,Maharashtra,Kolhapur,Gadhinglaj,Halkarne,74.46944444,16.16944444,2022,7.49,1082.0,0,195.3,120.5,64.0,61.4,,290.0,38.1,47.4,55.7,15.3,0.23,,
W162940074075001,560,Maharashtra,Kolhapur,Radhanagari,Shelewadi,74.11666667,16.49444444,2022,7.9,388.9,0,183.1,17.7,19.0,28.3,,180.0,34.1,23.1,12.2,0.7,0.39,,
W163615073533001,561,Maharashtra,Kolhapur,Gagan-Bawada,Aslaj,73.89166667,16.60416667,2022,7.82,51.73,0,18.3,7.1,2.2,10.1,,25.0,8.0,1.2,3.4,0.6,0.14,,
W162706074031201,562,Maharashtra,Kolhapur,RADHANAGARI,Khindivarvade-1,74.05055556,16.45166667,2022,7.08,188.5,0,91.5,10.6,6.0,13.3,,80.0,20.0,7.3,8.0,3.2,0.17,,
W165247074023301,563,Maharashtra,Kolhapur,SHAHUWADI,Wadicharan-1,74.03416667,16.87972222,2022,7.93,843.2,0,408.8,42.5,25.7,14.6,,250.0,46.1,32.8,49.8,40.9,0.19,,
W165603073545201,564,Maharashtra,Kolhapur,SHAHUWADI,Shelarwadi,73.91444444,16.93416667,2022,7.77,167.7,0,97.6,10.6,2.4,11.6,,85.0,20.0,8.5,7.6,0.4,0.17,,
W164118073595101,565,Maharashtra,Kolhapur,BAVDA,Kirve,73.9975,16.68833333,2022,7.73,212.5,0,97.6,17.7,5.4,7.3,,95.0,22.0,9.7,9.1,1.2,0.21,,
W155755074063901,566,Maharashtra,Kolhapur,CHANDGAD,Kanura Khurd,74.1025,15.96527778,2022,7.75,146.1,0,42.7,10.6,5.9,15.9,,40.0,8.0,4.9,8.5,7.6,0.13,,
W163239074100701,567,Maharashtra,Kolhapur,KARVIR,Cheye,74.16861111,16.54416667,2022,7.64,384.2,0,122.0,24.8,26.4,42.1,,165.0,28.1,23.1,13.2,0.5,0.22,,
W163450074184301,568,Maharashtra,Kolhapur,Kagal,Kagal,74.31194444,16.58055556,2022,7.64,761.5,0,250.2,56.7,48.7,39.0,,245.0,40.1,35.2,44.3,0.5,0.47,,
W164417074361501,569,Maharashtra,Kolhapur,Shirol,Shirol,74.60416667,16.73805556,2022,7.43,2177.0,0,311.2,276.5,336.0,54.1,,695.0,128.3,91.1,156.8,3.6,0.31,,
W162152074090601,570,Maharashtra,Kolhapur,Budhagad,Madigi Budrukh1,74.15166667,16.36444444,2022,7.97,1033.0,0,250.2,124.1,57.7,5.9,,265.0,34.1,43.7,71.1,11.6,0.44,,
W155642074123201,571,Maharashtra,Kolhapur,CHANDGAD,Shirgaon1,74.20888889,15.945,2022,7.65,98.6,0,36.6,10.6,5.4,10.8,,45.0,8.0,6.1,5.1,0.2,0.14,,
W181800076320001,572,Maharashtra,Latur,Ausa,Budhoda,76.53333333,18.3,2022,7.49,928.9,0,183.1,85.1,79.3,37.7,,305.0,64.1,35.2,44.8,5.8,0.49,,
W182400076240001,573,Maharashtra,Latur,Latur,Murud-Akola,76.4,18.4,2022,7.66,1563.0,0,488.2,148.9,92.4,69.3,,575.0,104.2,76.5,80.0,7.0,1.03,,
W181500076300001,574,Maharashtra,Latur,Ausa,Ausa,76.5,18.25,2022,7.65,1084.0,0,311.2,166.6,76.5,8.9,,450.0,92.2,53.5,40.7,3.7,0.52,,
W181655076401501,575,Maharashtra,Latur,Nilanga,Panchincholi,76.23333333,18.4,2022,7.85,1092.0,0,366.1,106.4,53.4,69.2,,350.0,54.1,52.2,72.6,13.2,0.56,,
W184540076462001,576,Maharashtra,Latur,AHMADPUR,Kingaon,76.77222222,18.76111111,2022,7.28,1508.0,0,396.6,173.7,79.3,89.1,,485.0,78.2,70.5,91.2,2.4,0.47,,
W183736076374501,577,Maharashtra,Latur,Renapur,Pangaon,76.62916667,18.62666667,2022,7.77,1344.0,0,335.6,191.4,78.9,73.4,,450.0,70.1,66.8,83.2,14.8,0.56,,
W183748077114801,578,Maharashtra,Latur,Jalkot,Jalkot,77.19666667,18.63,2022,7.76,529.2,0,256.3,31.9,25.9,7.2,,210.0,40.1,26.7,32.0,1.5,0.72,,
W180700076350001,579,Maharashtra,Latur,Ausa,Lamjana Phata,76.58333333,18.11666667,2022,7.72,594.4,0,250.2,35.5,26.1,16.8,,230.0,50.1,25.5,26.9,2.5,0.66,,
W181900077090001,580,Maharashtra,Latur,Udgir,Mogha,77.15,18.31666667,2022,7.75,610.8,0,268.5,28.4,24.5,36.1,,245.0,44.1,32.8,21.4,5.7,0.65,,
W182430076185001,581,Maharashtra,Latur,Latur,Borgaon Kale,76.31388889,18.40833333,2022,7.28,1396.0,0,408.8,145.3,72.9,83.5,,450.0,70.1,66.8,94.1,10.2,0.49,,
W184015076500001,582,Maharashtra,Latur,Ahmadpur,Patoda,76.83333333,18.67083333,2022,7.75,891.6,0,390.5,56.7,48.3,4.5,,350.0,72.1,41.3,38.2,6.3,0.78,,
W181603076234801,583,Maharashtra,Latur,Ausa,Bhada,76.39666667,18.2675,2022,7.47,959.5,0,292.9,106.4,78.8,6.7,,415.0,72.1,57.1,32.7,2.2,0.79,,
W182733076452501,584,Maharashtra,Latur,Chakur,Ashta,76.75694444,18.45916667,2022,7.73,1202.0,0,292.9,131.2,96.6,88.1,,475.0,64.1,76.5,51.8,2.5,0.7,,
W182047076532501,585,Maharashtra,Latur,Shirur-Anantpal,Pandharwadi,76.89027778,18.34638889,2022,7.82,1119.0,0,390.5,81.5,78.9,69.7,,335.0,68.1,40.1,83.3,31.1,0.78,,
W183005076341001,586,Maharashtra,Latur,Renapur,Rajwadi,76.56944444,18.50138889,2022,7.68,897.5,0,262.4,81.5,45.3,42.4,,215.0,52.1,20.7,85.0,1.3,0.89,,
W181359076582801,587,Maharashtra,Latur,UDGIR,Walandi-1,76.97444444,18.23305556,2022,7.73,807.5,0,274.6,74.4,18.2,70.6,,290.0,40.1,46.2,47.1,4.7,0.73,,
W182524076485901,588,Maharashtra,Latur,AHMADPUR,Nalegaon-1,76.81638889,18.42333333,2022,7.49,1288.0,0,445.4,56.7,73.5,20.4,,390.0,58.1,59.5,58.8,4.0,0.57,,
W175630076505901,589,Maharashtra,Latur,NILANGA,Kasar Belkunda-1,76.84972222,17.94166667,2022,7.95,958.6,0,372.2,35.5,46.9,45.8,,200.0,28.1,31.6,52.5,111.2,0.89,,
W182113076481801,590,Maharashtra,Latur,Shirur-Anantpal,Rapka,76.805,18.35361111,2022,7.57,1019.0,0,366.1,78.0,68.7,45.0,,325.0,64.1,40.1,77.6,2.4,0.74,,
W181505076261001,591,Maharashtra,Latur,Ausa,Samdarga,76.43611111,18.25138889,2022,7.66,1228.0,0,457.7,85.1,57.8,81.2,,340.0,70.1,40.1,58.6,107.6,0.62,,
W180508076240801,592,Maharashtra,Latur,Ausa,Matola,76.40222222,18.08555556,2022,7.52,995.0,0,311.2,99.3,68.4,44.8,,325.0,54.1,46.2,67.8,10.4,0.89,,
W184512076591501,593,Maharashtra,Latur,AHMADPUR,Rudha,76.9875,18.75333333,2022,7.74,744.2,0,292.9,42.5,51.2,42.9,,245.0,42.1,34.0,58.8,0.9,0.89,,
W183701076482501,594,Maharashtra,Latur,AUSA,Zari_Bk,76.80694444,18.61694444,2022,7.76,512.7,0,286.8,14.2,18.5,8.7,,170.0,34.1,20.7,51.5,0.4,0.98,,
W190807072531401,595,Maharashtra,MUMBAI,MUMBAI (SUBURBAN),A.M.C. Colony,72.88722222,19.13527778,2022,7.97,1274.0,0,457.7,180.8,23.4,15.1,,300.0,50.1,42.5,141.5,16.9,0.3,,
W185555072495201,596,Maharashtra,MUMBAI,MUMBAI,Bombay (Church Gate),72.83111111,18.93194444,2022,7.59,472.8,0,183.1,42.5,16.8,16.2,,180.0,50.1,13.4,23.6,4.1,0.34,,
W190130072504001,597,Maharashtra,MUMBAI,MUMBAI,Mahim,72.84444444,19.025,2022,7.94,703.8,0,335.6,28.4,20.2,6.9,,245.0,50.1,29.2,35.1,9.5,0.32,,
W190551072503501,598,Maharashtra,MUMBAI,MUMBAI (SUBURBAN),Vile Parle West,72.84305556,19.0975,2022,7.73,934.8,0,366.1,81.5,23.9,7.5,,250.0,60.1,24.3,81.2,3.8,0.44,,
W190757072502101,599,Maharashtra,MUMBAI,MUMBAI (SUBURBAN),Amboli_Sarota Pada,72.83916667,19.1325,2022,7.87,968.0,0,292.9,127.6,31.3,35.4,,200.0,50.1,18.2,101.2,23.9,0.4,,
W190947072531701,600,Maharashtra,MUMBAI,MUMBAI (SUBURBAN),Film City-Habale Pada,72.88805556,19.16305556,2022,7.87,428.4,0,170.9,31.9,11.5,9.5,,135.0,30.1,14.6,20.6,7.3,0.35,,
W190450072513101,601,Maharashtra,MUMBAI,MUMBAI (SUBURBAN),Vakola,72.85861111,19.08055556,2022,7.85,704.3,0,299.0,46.1,16.9,19.7,,190.0,34.1,25.5,57.0,8.5,0.35,,
W185809072503801,602,Maharashtra,MUMBAI,MUMBAI,Mazgaon,72.84388889,18.96916667,2022,7.78,658.0,0,305.1,24.8,9.9,6.1,,275.0,70.1,24.3,15.2,6.2,0.54,,
W185845072500501,603,Maharashtra,MUMBAI,MUMBAI (SUBURBAN),Ranicha Bagh,72.83472222,18.97916667,2022,8.08,961.6,0,402.7,53.2,27.4,7.8,,240.0,82.2,8.5,100.8,4.1,0.32,,
W191434072470701,604,Maharashtra,MUMBAI,MUMBAI (SUBURBAN),Gorai Beach,72.78527778,19.24277778,2022,7.82,1008.0,0,396.6,95.7,20.9,5.3,,300.0,70.1,30.4,81.4,6.3,0.48,,
W191251072470601,605,Maharashtra,MUMBAI,MUMBAI (SUBURBAN),Manori,72.785,19.21416667,2022,7.7,1371.0,0,335.6,280.1,13.2,9.8,,370.0,76.2,43.7,116.0,11.1,0.38,,
W190830072472301,606,Maharashtra,MUMBAI CITY,MUMBAI (SUBURBAN),Madh,72.78972222,19.14166667,2022,7.75,756.2,0,299.0,56.7,46.1,3.7,,250.0,60.1,24.3,53.0,0.7,0.36,,
W205100079200001,607,Maharashtra,Nagpur,UMRED,Umrer,79.33333333,20.85,2022,7.73,338.5,0,164.8,28.4,16.6,2.4,,150.0,40.1,12.2,13.7,3.0,0.58,,
W211700078350001,608,Maharashtra,NAGPUR,KATOL,Katol,78.58333333,21.28333333,2022,7.57,993.3,0,292.9,117.0,66.6,35.7,,345.0,44.1,57.1,62.7,1.6,0.88,,
W212400079180001,609,Maharashtra,Nagpur,PARSEONI,Ramtek,79.3,21.4,2022,7.67,292.4,0,122.0,31.9,6.7,3.2,,110.0,32.1,7.3,21.2,3.4,0.6,,
W212800078320001,610,Maharashtra,Nagpur,NARKHED,Narkhed,78.53333333,21.46666667,2022,7.6,1285.0,0,408.8,124.1,79.7,45.1,,420.0,64.1,63.2,76.6,0.8,0.44,,
W205916079015201,611,Maharashtra,Nagpur,HINGNA,Gumgaon,79.03333333,20.99166667,2022,7.51,1057.0,0,286.8,131.2,50.4,37.6,,400.0,56.1,63.2,35.7,1.0,0.44,,
W213500079220001,612,Maharashtra,Nagpur,RAMTEK,Deolapar,79.36666667,21.58333333,2022,7.61,668.5,0,335.6,31.9,19.1,19.6,,310.0,60.1,38.9,12.8,3.5,1.08,,
W210200079100001,613,Maharashtra,Nagpur,UMRED,Panchgaon,79.16666667,21.03333333,2022,7.54,733.0,0,305.1,39.0,48.6,27.5,,315.0,54.1,43.7,18.0,0.4,1.02,,
W211400078550001,614,Maharashtra,Nagpur,KALAMESHWAR,Kalmeshwar,78.91666667,21.23333333,2022,7.76,421.1,0,177.0,42.5,24.7,6.2,,185.0,40.1,20.7,17.2,1.9,0.51,,
W212800079190001,615,Maharashtra,Nagpur,RAMTEK,Chorbaoli,79.31666667,21.46666667,2022,7.76,1469.0,0,506.5,209.2,25.2,3.1,,395.0,90.2,41.3,127.8,1.7,0.66,,
W213300079100001,616,Maharashtra,Nagpur,PARSEONI,Parseoni,79.16666667,21.55,2022,7.85,1146.0,0,414.9,95.7,52.9,60.1,,400.0,84.2,46.2,38.5,50.8,0.28,,
W213400079010001,617,Maharashtra,Nagpur,PARSEONI,Nagalwadi,79.01666667,21.56666667,2022,8.25,3057.0,0,720.0,326.1,72.2,87.4,,500.0,86.2,69.3,400.8,62.4,1.24,,
W212400079281501,618,Maharashtra,Nagpur,RAMTEK,Sivani,79.47083333,21.4,2022,7.9,899.4,0,335.6,99.3,41.4,25.4,,315.0,74.1,31.6,61.9,0.9,1.29,,
W205700079130001,619,Maharashtra,Nagpur,UMRED,Uti,79.21666667,20.95,2022,7.62,1164.0,0,299.0,177.3,62.2,17.9,,360.0,66.1,47.4,84.4,3.9,0.95,,
W211700079203001,620,Maharashtra,Nagpur,MOUDA,Chacher,79.34166667,21.28333333,2022,7.69,996.9,0,305.1,138.3,44.4,29.9,,325.0,88.2,25.5,68.8,1.6,0.99,,
W214050079252001,621,Maharashtra,Nagpur,RAMTEK,Manegaon Tek,79.42222222,21.68055556,2022,7.52,1331.0,0,335.6,145.3,54.2,76.9,,525.0,86.2,75.3,33.5,4.0,0.78,,
W212735078523501,622,Maharashtra,Nagpur,SAVNER,Kelod,78.87638889,21.45972222,2022,7.79,1479.0,0,445.4,177.3,69.1,60.5,,465.0,92.2,57.1,106.1,2.4,1.09,,
W210800078480001,623,Maharashtra,Nagpur,HINGNA,Sathnaori,78.8,21.13333333,2022,7.65,1167.0,0,408.8,95.7,51.8,68.2,,370.0,64.1,51.0,48.9,53.7,0.7,,
W212200079110001,624,Maharashtra,Nagpur,PARSEONI,Nayakund,79.18333333,21.36666667,2022,7.64,778.8,0,256.3,74.4,44.3,44.0,,275.0,54.1,34.0,40.9,6.0,0.77,,
W212700078580001,625,Maharashtra,Nagpur,SAVNER,Khubala,78.96666667,21.45,2022,7.8,741.5,0,305.1,49.6,21.5,31.8,,235.0,60.1,20.7,38.8,23.0,0.73,,
W212000079130001,626,Maharashtra,Nagpur,PARSEONI,Wagholi,79.21666667,21.33333333,2022,7.74,803.6,0,317.3,81.5,23.5,26.8,,270.0,52.1,34.0,55.2,3.8,0.95,,
W212200079240001,627,Maharashtra,Nagpur,RAMTEK,Sirpur Toli,79.4,21.36666667,2022,7.86,573.4,0,231.9,35.5,31.8,23.5,,180.0,28.1,26.7,42.3,2.3,0.95,,
W211430079324501,628,Maharashtra,Nagpur,MOUDA,Khat,79.54583333,21.24166667,2022,7.97,904.0,0,402.7,60.3,44.6,9.1,,240.0,52.1,26.7,87.8,6.9,0.49,,
W205300078583001,629,Maharashtra,Nagpur,NAGPUR (RURAL),Borkhedi,78.975,20.88333333,2022,7.72,690.4,0,305.1,42.5,28.9,9.3,,250.0,52.1,29.2,32.8,1.0,0.66,,
W211600078453001,630,Maharashtra,Nagpur,KATOL,Chargaon (Punarwasi),78.75833333,21.26666667,2022,7.71,469.2,0,244.1,17.7,9.1,2.8,,200.0,38.1,25.5,12.7,0.2,0.65,,
W210750079035001,631,Maharashtra,Nagpur,NAGPUR (RURAL),Nagpur_Ramdaspeth,79.05,21.11805556,2022,7.99,873.8,0,384.4,63.8,26.8,7.5,,245.0,36.1,37.7,75.0,0.6,0.5,,
W204810079254301,632,Maharashtra,Nagpur,BHIWAPUR,Nawegaon (Deshmukh),79.42861111,20.80277778,2022,8.21,638.2,0,366.1,17.7,2.6,8.5,,240.0,56.1,24.3,29.9,6.8,1.39,,
W212510079021801,633,Maharashtra,Nagpur,SAVNER,Kothulna,79.03555556,21.41944444,2022,7.86,2530.0,0,646.8,404.1,67.1,76.0,,730.0,94.2,120.3,223.7,17.4,0.9,,
W205600078510001,634,Maharashtra,Nagpur,HINGNA,Kanholi bara,78.85,20.93333333,2022,7.94,470.6,0,213.6,24.8,23.9,13.3,,195.0,52.1,15.8,18.2,0.6,0.92,,
W205200079131001,635,Maharashtra,Nagpur,UMRED,Makardhokda,79.21944444,20.86666667,2022,7.77,851.9,0,274.6,99.3,56.2,11.9,,340.0,54.1,49.8,27.8,1.7,0.63,,
W205940078553001,636,Maharashtra,Nagpur,HINGNA,Amgaon,78.925,20.99444444,2022,7.9,870.5,0,384.4,60.3,42.8,4.9,,345.0,54.1,51.0,33.8,0.6,0.53,,
W212330078380601,637,Maharashtra,Nagpur,NARKHED,Sawargaon,78.635,21.39166667,2022,7.5,984.8,0,323.4,120.5,26.5,44.1,,410.0,110.2,32.8,21.9,2.6,0.35,,
W211810078545001,638,Maharashtra,Nagpur,KALAMESHWAR,Dhapewada,78.91388889,21.30277778,2022,7.76,1450.0,0,433.2,180.8,62.2,44.4,,480.0,92.2,60.8,84.7,0.8,0.41,,
W211510079044801,639,Maharashtra,Nagpur,KAMPTEE,Koradi,79.06888889,21.25277778,2022,7.83,1106.0,0,402.7,131.2,59.0,35.7,,400.0,74.1,52.2,69.2,1.1,1.38,,
W210735079062001,640,Maharashtra,Nagpur,NAGPUR (RURAL),Nagpur_Hanuman naga,79.1,21.1175,2022,7.78,1396.0,0,396.6,170.2,80.9,30.6,,220.0,50.1,23.1,204.6,1.2,1.49,,
W212323078562601,641,Maharashtra,Nagpur,SAVNER,Saoner-1,78.94055556,21.38972222,2022,7.93,1436.0,0,512.6,134.7,74.3,60.4,,525.0,60.1,91.1,78.5,1.1,0.56,,
W210850079240101,642,Maharashtra,Nagpur,MOUDA,Mouda-1,79.40027778,21.13472222,2022,7.9,3052.0,0,543.1,606.2,183.7,24.0,,310.0,52.1,43.7,532.5,8.2,0.99,,
W211014078364001,643,Maharashtra,Nagpur,KATOL,Nandora,78.61111111,21.17055556,2022,7.86,502.0,0,256.3,42.5,2.9,3.7,,210.0,38.1,27.9,20.2,1.8,0.18,,
W205452078563801,644,Maharashtra,Nagpur,HINGNA,Takalghat,78.94388889,20.91444444,2022,7.87,1842.0,0,591.9,191.4,160.2,57.5,,515.0,62.1,87.5,180.3,0.9,0.74,,
W212112078592601,645,Maharashtra,Nagpur,SAVNER,Bhasali Takli,78.99055556,21.35333333,2022,7.78,1594.0,0,469.9,173.7,67.8,60.0,,460.0,68.1,70.5,110.0,1.4,0.28,,
W204959079155601,646,Maharashtra,Nagpur,UMRED,Pipaldol,79.26555556,20.83305556,2022,8.02,1102.0,0,329.5,92.2,81.6,11.1,,455.0,96.2,52.2,29.2,6.1,0.41,,
W204559079305901,647,Maharashtra,Nagpur,BHIWAPUR,Bhiwapur,79.51638889,20.76638889,2022,8.04,1035.0,0,280.7,156.0,59.4,19.6,,350.0,74.1,40.1,58.1,4.7,1.05,,
