well_id,sno,state,district,block,location,latitude,longitude,year,ph,ec,co3,hco3,cl,so4,no3,po4,th,ca,mg,na,k,f,sio2,tds
202300001,1,Andaman & Nicobar Islands,North & Middle Andaman,,Bakultala,12.5043,92.8577,2023,7.96,395,0,171,14,28,8,0.04,160,12,32,18,5,0.18,,
202300002,2,Andaman & Nicobar Islands,North & Middle Andaman,,Baratang (Nilambur),12.1683,92.767,2023,8.19,473,0,31,96,50,10,0.03,135,26,17,39,5,0.00,,
202300003,3,Andaman & Nicobar Islands,North & Middle Andaman,,Basantipur,12.7579,92.8737,2023,8.19,556,0,220,28,51,1,0.05,230,38,33,22,1,0.00,,
202300004,4,Andaman & Nicobar Islands,North & Middle Andaman,,Betapur,12.6191,92.9434,2023,8.07,487,0,214,57,0,2,0.08,95,18,12,68,8,0.16,,
202300005,5,Andaman & Nicobar Islands,North & Middle Andaman,,Dhobidera (Mayabunder),12.9099,92.8992,2023,8.02,567,0,232,39,29,11,0.04,230,28,39,31,1,0.13,,
202300006,6,Andaman & Nicobar Islands,North & Middle Andaman,,Durgapur,13.2765,93.0236,2023,8.20,526,0,232,25,28,0,0.09,160,34,18,43,1,0.38,,
202300007,7,Andaman & Nicobar Islands,North & Middle Andaman,,Haribay,13.0023,92.8442,2023,8.15,233,0,92,25,12,3,0.08,70,24,2,25,1,0.00,,
202300008,8,Andaman & Nicobar Islands,North & Middle Andaman,,Joypur,12.6982,92.8809,2023,8.13,457,0,201,32,26,1,0.10,220,14,45,12,0,0.12,,
202300009,9,Andaman & Nicobar Islands,North & Middle Andaman,,Kadamtala,12.3488,92.775,2023,8.09,413,0,214,25,8,2,0.07,180,34,23,13,1,0.00,,
202300010,10,Andaman & Nicobar Islands,North & Middle Andaman,,Kausalyanagar,12.5284,92.8189,2023,8.08,276,0,122,21,13,4,0.02,95,24,9,23,3,0.00,,
202300011,11,Andaman & Nicobar Islands,North & Middle Andaman,,Keralapuram,13.2588,93.0135,2023,8.18,271,0,98,28,15,2,0.03,105,8,21,15,2,0.00,,
202300012,12,Andaman & Nicobar Islands,North & Middle Andaman,,Kishorinagar (Parangara),13.163,92.8839,2023,8.25,72,0,31,7,1,1,0.00,30,6,4,3,1,0.03,,
202300013,13,Andaman & Nicobar Islands,North & Middle Andaman,,Laxmipur,13.2873,92.964,2023,8.12,1081,0,98,163,186,0,0.01,255,12,55,113,5,0.69,,
202300014,14,Andaman & Nicobar Islands,North & Middle Andaman,,Long Island,12.3653,92.9248,2023,8.14,315,0,128,28,12,2,0.03,130,32,12,11,4,0.00,,
202300015,15,Andaman & Nicobar Islands,North & Middle Andaman,,Long Island,12.3644,92.9237,2023,8.15,353,0,159,14,30,0,0.09,165,12,33,9,0,0.00,,
202300016,16,Andaman & Nicobar Islands,North & Middle Andaman,,Long Island (Forest Area),12.3667,92.9231,2023,8.17,628,0,342,28,10,3,0.01,320,14,69,7,3,0.00,,
202300017,17,Andaman & Nicobar Islands,North & Middle Andaman,,Long Island (Sec. School),12.3671,92.9176,2023,8.13,342,0,177,18,7,0,0.00,140,24,19,12,0,0.03,,
202300018,18,Andaman & Nicobar Islands,North & Middle Andaman,,Milangram,13.3148,92.9431,2023,8.16,247,0,79,39,11,1,0.08,80,14,11,20,2,0.02,,
202300019,19,Andaman & Nicobar Islands,North & Middle Andaman,,Mohanpur,12.9546,92.8357,2023,7.91,416,0,201,21,2,20,0.01,190,34,26,13,3,0.11,,
202300020,20,Andaman & Nicobar Islands,North & Middle Andaman,,Nabagram,13.1555,92.9491,2023,8.21,298,0,116,35,0,2,0.09,95,24,9,25,1,0.00,,
202300021,21,Andaman & Nicobar Islands,North & Middle Andaman,,Nimbutala,12.4946,92.9542,2023,8.01,427,0,195,35,13,11,0.01,200,16,39,11,3,0.42,,
202300022,22,Andaman & Nicobar Islands,North & Middle Andaman,,Padmanavapuram,12.6063,92.9493,2023,7.91,294,0,98,21,25,26,0.03,70,26,1,37,1,0.27,,
202300023,23,Andaman & Nicobar Islands,North & Middle Andaman,,Pahalgaon,12.8393,92.8532,2023,8.03,405,0,183,35,11,6,0.10,190,12,39,12,1,0.11,,
202300024,24,Andaman & Nicobar Islands,North & Middle Andaman,,Parnashala,12.5244,92.9043,2023,8.08,703,0,232,103,8,3,0.10,230,22,43,60,6,0.00,,
202300025,25,Andaman & Nicobar Islands,North & Middle Andaman,,Phooltala Basti,12.4118,92.7629,2023,8.22,541,0,201,28,37,13,0.04,200,14,40,41,4,0.16,,
202300026,26,Andaman & Nicobar Islands,North & Middle Andaman,,Porlobjig15,12.496,92.7813,2023,8.21,290,0,134,18,12,3,0.04,115,16,18,13,1,0.00,,
202300027,27,Andaman & Nicobar Islands,North & Middle Andaman,,Rangat,12.5057,92.9108,2023,8.02,558,0,268,28,14,9,0.06,225,24,40,30,5,0.46,,
202300028,28,Andaman & Nicobar Islands,North & Middle Andaman,,Rest Camp,12.8328,92.8593,2023,7.95,441,0,171,35,32,8,0.00,170,34,21,21,1,0.42,,
202300029,29,Andaman & Nicobar Islands,North & Middle Andaman,,Shibpur,13.2507,93.0421,2023,7.81,886,0,275,142,7,2,0.10,215,28,35,107,7,0.00,,
202300030,30,Andaman & Nicobar Islands,North & Middle Andaman,,Sitanagar,13.2261,92.9359,2023,8.20,301,0,92,43,16,2,0.08,100,16,15,21,1,0.00,,
202300031,31,Andaman & Nicobar Islands,North & Middle Andaman,,South Creek (Sundergarh),12.1869,92.7919,2023,8.02,406,0,140,50,31,3,0.06,175,18,32,20,2,0.08,,
202300032,32,Andaman & Nicobar Islands,North & Middle Andaman,,Srinagar,13.1399,92.8688,2023,8.10,513,0,214,74,0,2,0.04,145,22,22,50,13,0.00,,
202300033,33,Andaman & Nicobar Islands,North & Middle Andaman,,Subhasgram,13.2432,92.9662,2023,7.96,1023,0,354,163,0,42,0.10,205,28,33,138,21,0.00,,
202300034,34,Andaman & Nicobar Islands,North & Middle Andaman,,Swadeshnagar,12.6508,92.8924,2023,8.23,385,0,177,28,20,1,0.03,170,20,29,13,2,0.10,,
202300035,35,Andaman & Nicobar Islands,North & Middle Andaman,,Tikadera,12.5228,92.814,2023,8.16,271,0,49,32,39,2,0.06,40,10,4,40,1,0.00,,
202300036,36,Andaman & Nicobar Islands,North & Middle Andaman,,Tugapur No. 8,12.8196,92.8224,2023,7.96,358,0,171,21,17,2,0.06,170,44,15,8,1,0.04,,
202300037,37,Andaman & Nicobar Islands,North & Middle Andaman,,Uttara,12.328,92.7901,2023,8.18,405,0,183,18,29,1,0.06,155,24,23,17,1,0.07,,
202300038,38,Andaman & Nicobar Islands,North & Middle Andaman,,Webi (Debipur),12.8669,92.872,2023,8.11,190,0,37,18,12,25,0.00,35,8,4,9,36,0.03,,
202300039,39,Andaman & Nicobar Islands,South Andaman,,6½ No. Forest Camp,12.008,92.9671,2023,8.24,368,0,128,53,0,5,0.10,90,20,10,40,5,0.00,,
202300040,40,Andaman & Nicobar Islands,South Andaman,,Annikat,11.7075,92.6482,2023,8.24,342,0,153,18,27,1,0.05,145,22,22,16,1,0.00,,
202300041,41,Andaman & Nicobar Islands,South Andaman,,Austinabad (Port Blair),11.6351,92.7347,2023,8.14,278,0,110,28,12,0,0.00,100,16,15,20,1,0.05,,
202300042,42,Andaman & Nicobar Islands,South Andaman,,Bambooflat,11.7055,92.715,2023,8.18,515,0,256,32,22,0,0.00,180,30,26,38,2,0.14,,
202300043,43,Andaman & Nicobar Islands,South Andaman,,Beadnabad Tubewell,11.5856,92.7339,2023,8.22,307,0,116,28,5,13,0.02,115,24,13,17,4,0.00,,
202300044,44,Andaman & Nicobar Islands,South Andaman,,Bharatpur,11.8304,93.0384,2023,7.98,329,0,146,25,17,0,0.05,145,14,27,12,0,0.34,,
202300045,45,Andaman & Nicobar Islands,South Andaman,,Bharatpur,11.8362,93.0447,2023,7.63,384,0,134,32,25,3,0.07,130,18,21,28,4,0.49,,
202300046,46,Andaman & Nicobar Islands,South Andaman,,Bindraban,11.722,92.6674,2023,8.23,450,0,146,39,44,0,0.04,175,16,33,26,2,0.02,,
202300047,47,Andaman & Nicobar Islands,South Andaman,,Brichganj,11.615,92.7377,2023,8.16,292,0,159,14,7,0,0.00,135,24,18,9,0,0.13,,
202300048,48,Andaman & Nicobar Islands,South Andaman,,Brookshabad (Port Blair),11.638,92.7404,2023,8.07,526,0,293,21,17,0,0.00,235,38,34,20,2,0.09,,
202300049,49,Andaman & Nicobar Islands,South Andaman,,Burmanala,11.558,92.7294,2023,8.27,376,0,189,25,15,0,0.00,155,30,19,19,0,0.09,,
202300050,50,Andaman & Nicobar Islands,South Andaman,,Calicut,11.6074,92.7264,2023,8.17,394,0,201,21,16,0,0.00,160,32,19,19,0,0.08,,
202300051,51,Andaman & Nicobar Islands,South Andaman,,Calicut Borewell,11.6001,92.7195,2023,8.05,330,0,104,35,21,14,0.10,135,22,19,11,4,0.00,,
202300052,52,Andaman & Nicobar Islands,South Andaman,,Chidiyatapu,11.5033,92.7019,2023,8.22,594,0,268,39,23,0,0.00,225,36,33,29,1,0.07,,
202300053,53,Andaman & Nicobar Islands,South Andaman,,Chouldari 1,11.6312,92.667,2023,8.24,622,0,256,46,53,1,0.08,135,26,17,88,1,0.10,,
202300054,54,Andaman & Nicobar Islands,South Andaman,,Corbyn'S Cove (Port Blair),11.6425,92.746,2023,7.70,713,0,281,78,30,0,0.00,230,52,24,66,2,0.13,,
202300055,55,Andaman & Nicobar Islands,South Andaman,,Dandaspoint,11.6704,92.7074,2023,8.27,339,0,146,35,3,5,0.00,150,28,19,12,1,0.09,,
202300056,56,Andaman & Nicobar Islands,South Andaman,,Dhannikhari,11.6126,92.6671,2023,8.24,355,0,61,78,8,2,0.06,70,14,9,45,10,0.00,,
202300057,57,Andaman & Nicobar Islands,South Andaman,,Dollyganj Chowk,11.6343,92.7228,2023,8.23,591,0,287,21,29,0,0.06,185,24,30,41,1,0.18,,
202300058,58,Andaman & Nicobar Islands,South Andaman,,Dolphin Yatri Niwas,12.0189,93.0112,2023,8.08,259,0,104,21,9,3,0.07,80,22,6,18,1,0.00,,
202300059,59,Andaman & Nicobar Islands,South Andaman,,Ferrarganj,11.7175,92.6531,2023,8.09,1004,0,494,89,0,3,0.00,300,34,52,104,12,0.52,,
202300060,60,Andaman & Nicobar Islands,South Andaman,,Garacharma,11.6137,92.7095,2023,8.00,695,0,299,60,29,0,0.00,250,42,35,37,3,0.15,,
202300061,61,Andaman & Nicobar Islands,South Andaman,,Govindanagar Vill No  1,12.0302,92.9972,2023,7.92,809,0,226,135,25,4,0.06,215,30,34,98,3,0.09,,
202300062,62,Andaman & Nicobar Islands,South Andaman,,Govindanagar Vill No  3,12.0232,93.0036,2023,8.06,413,0,214,25,8,2,0.08,125,18,19,38,3,0.57,,
202300063,63,Andaman & Nicobar Islands,South Andaman,,Gupta Para,11.5599,92.6587,2023,8.20,371,0,153,18,32,2,0.02,140,24,19,22,2,0.00,,
202300064,64,Andaman & Nicobar Islands,South Andaman,,Haddo – 2,11.7685,92.7279,2023,8.27,617,0,214,82,27,1,0.02,240,16,49,34,1,0.07,,
202300065,65,Andaman & Nicobar Islands,South Andaman,,Hasmatabad,11.5944,92.6455,2023,8.11,343,0,183,18,5,3,0.00,160,30,21,12,2,0.09,,
202300066,66,Andaman & Nicobar Islands,South Andaman,,Havelock Island Jetty,12.0413,92.981,2023,7.85,1169,0,226,135,242,2,0.07,335,26,66,118,7,0.60,,
202300067,67,Andaman & Nicobar Islands,South Andaman,,Herbertabad,11.7082,92.6151,2023,8.23,198,0,92,18,4,2,0.06,80,20,7,9,2,0.15,,
202300068,68,Andaman & Nicobar Islands,South Andaman,,Hope Town (Maremon Temple),11.6981,92.7272,2023,8.29,635,0,171,78,47,28,0.09,235,24,43,38,8,0.46,,
202300069,69,Andaman & Nicobar Islands,South Andaman,,Junglighat (Vip Road),11.6576,92.7352,2023,8.29,461,0,153,60,27,0,0.00,170,30,23,28,1,0.11,,
202300070,70,Andaman & Nicobar Islands,South Andaman,,Kalapathar,11.9749,93.0059,2023,7.97,852,0,195,174,0,7,0.05,200,18,38,106,5,0.00,,
202300071,71,Andaman & Nicobar Islands,South Andaman,,Kanyapuram,11.7367,92.7069,2023,8.09,504,0,189,50,17,14,0.04,200,24,34,20,1,0.35,,
202300072,72,Andaman & Nicobar Islands,South Andaman,,Kodiaghat,11.5452,92.7277,2023,8.14,278,0,122,18,4,0,0.00,105,30,7,12,0,0.07,,
202300073,73,Andaman & Nicobar Islands,South Andaman,,Krishnanagar,12.0018,92.9766,2023,8.10,368,0,171,25,20,2,0.10,150,24,22,20,1,0.22,,
202300074,74,Andaman & Nicobar Islands,South Andaman,,Lamba Line,11.6593,92.7495,2023,8.16,389,0,110,82,0,2,0.07,115,8,23,42,5,0.00,,
202300075,75,Andaman & Nicobar Islands,South Andaman,,Laxmanpur,11.832,93.0171,2023,8.12,324,0,153,25,0,1,0.04,60,18,4,45,2,0.42,,
202300076,76,Andaman & Nicobar Islands,South Andaman,,Light House,11.6681,92.7378,2023,8.22,812,0,390,50,27,2,0.00,200,12,41,99,4,0.38,,
202300077,77,Andaman & Nicobar Islands,South Andaman,,Mamyo,11.5979,92.633,2023,8.24,167,0,61,11,11,3,0.01,50,18,1,12,3,0.00,,
202300078,78,Andaman & Nicobar Islands,South Andaman,,Manglutan,11.5714,92.6602,2023,8.09,129,0,24,14,17,3,0.02,45,8,6,8,0,0.25,,
202300079,79,Andaman & Nicobar Islands,South Andaman,,Manjeri,11.5393,,2023,8.30,732,0,336,39,33,10,0.02,295,16,62,30,5,0.41,,
202300080,80,Andaman & Nicobar Islands,South Andaman,,Mannarghat,11.7685,92.7061,2023,8.13,397,0,159,14,50,15,0.06,155,18,27,22,1,0.30,,
202300081,81,Andaman & Nicobar Islands,South Andaman,,Marina Park,11.6711,92.7463,2023,7.84,418,0,195,25,21,0,0.01,180,22,30,22,1,0.24,,
202300082,82,Andaman & Nicobar Islands,South Andaman,,Mile Tilak,11.7947,92.6557,2023,8.21,766,0,305,82,28,1,0.08,170,18,30,100,7,0.00,,
202300083,83,Andaman & Nicobar Islands,South Andaman,,Mithakhari,11.6681,92.6734,2023,8.26,1674,0,464,230,152,10,0.01,320,20,66,247,6,0.00,,
202300084,84,Andaman & Nicobar Islands,South Andaman,,Mount Harriyat,11.7194,92.7326,2023,8.23,123,0,43,11,5,8,0.00,40,12,2,10,2,0.07,,
202300085,85,Andaman & Nicobar Islands,South Andaman,,Namunagar,11.6905,92.6802,2023,8.19,412,0,165,32,34,2,0.09,175,16,33,15,2,0.18,,
202300086,86,Andaman & Nicobar Islands,South Andaman,,Nayasahar,11.579,92.6767,2023,8.22,252,0,73,35,0,9,0.09,80,28,2,16,2,0.00,,
202300087,87,Andaman & Nicobar Islands,South Andaman,,Neil Kendra,11.8332,93.0293,2023,8.12,460,0,177,71,0,2,0.02,155,16,28,38,6,0.00,,
202300088,88,Andaman & Nicobar Islands,South Andaman,,New Bimliton,11.5713,92.6963,2023,8.17,439,0,110,53,47,0,0.02,150,14,28,27,5,0.00,,
202300089,89,Andaman & Nicobar Islands,South Andaman,,Ograbraj,11.6555,92.6612,2023,7.70,2532,0,531,606,92,1,0.00,460,76,66,394,25,0.28,,
202300090,90,Andaman & Nicobar Islands,South Andaman,,Pearl Park Resort,11.8454,93.0144,2023,8.03,485,0,250,18,24,2,0.05,235,18,46,11,0,0.38,,
202300091,91,Andaman & Nicobar Islands,South Andaman,,Port Blair,11.6706,92.744,2023,8.04,818,0,323,64,66,12,0.00,300,56,39,61,11,0.14,,
202300092,92,Andaman & Nicobar Islands,South Andaman,,Port Blair (Dobhi Well),11.671,92.7349,2023,8.04,577,0,281,25,30,0,0.01,220,30,35,28,0,0.21,,
202300093,93,Andaman & Nicobar Islands,South Andaman,,Port Mout,11.6433,92.6599,2023,8.03,388,0,189,21,15,5,0.00,185,26,29,9,2,0.24,,
202300094,94,Andaman & Nicobar Islands,South Andaman,,Radhanagar,11.9918,92.9536,2023,8.03,509,0,195,50,28,0,0.10,200,20,36,24,4,0.30,,
202300095,95,Andaman & Nicobar Islands,South Andaman,,Ramnagar,11.8172,93.0453,2023,8.22,380,0,134,53,12,0,0.07,150,30,18,16,3,0.00,,
202300096,96,Andaman & Nicobar Islands,South Andaman,,Rangachang,11.5793,92.737,2023,7.99,418,0,214,21,6,2,0.01,150,28,19,31,2,0.00,,
202300097,97,Andaman & Nicobar Islands,South Andaman,,Ross Island,11.6758,92.7638,2023,8.08,768,0,238,103,32,16,0.03,190,42,21,100,3,0.37,,
202300098,98,Andaman & Nicobar Islands,South Andaman,,Saitankhari,11.7172,92.6661,2023,8.20,491,0,232,39,21,0,0.00,215,38,29,19,2,0.16,,
202300099,99,Andaman & Nicobar Islands,South Andaman,,Shadipur (Port Blair),11.6565,92.7435,2023,7.96,592,0,262,46,31,10,0.00,210,36,29,44,4,0.18,,
202300100,100,Andaman & Nicobar Islands,South Andaman,,Shoal  Bay – 8 No.,11.8133,92.7172,2023,8.01,144,0,43,21,7,0,0.05,40,6,6,13,1,0.17,,
202300101,101,Andaman & Nicobar Islands,South Andaman,,Shoal  Bay– 12 No.,11.8472,92.7303,2023,7.98,340,0,116,46,0,2,0.08,65,18,5,46,1,0.07,,
202300102,102,Andaman & Nicobar Islands,South Andaman,,Shoal  Bay– 15 No.,11.8656,92.7364,2023,8.13,202,0,79,21,6,1,0.05,90,20,10,7,1,0.00,,
202300103,103,Andaman & Nicobar Islands,South Andaman,,Sippighat,11.6032,92.6857,2023,7.89,624,0,281,64,6,1,0.00,250,56,27,39,2,0.10,,
202300104,104,Andaman & Nicobar Islands,South Andaman,,Sitanagar,11.8201,93.0608,2023,7.96,615,0,116,99,49,0,0.07,170,32,22,61,3,0.01,,
202300105,105,Andaman & Nicobar Islands,South Andaman,,South Point (Port Blair),11.6641,92.7538,2023,8.29,420,0,220,32,5,0,0.00,165,30,22,26,2,0.05,,
202300106,106,Andaman & Nicobar Islands,South Andaman,,Steuwartganj,11.7242,92.7097,2023,8.22,506,0,244,14,42,0,0.03,230,22,43,11,3,0.00,,
202300107,107,Andaman & Nicobar Islands,South Andaman,,Teylarabad,11.6073,92.7009,2023,8.28,260,0,92,35,0,3,0.03,85,16,11,18,7,0.00,,
202300108,108,Andaman & Nicobar Islands,South Andaman,,Tirur,11.7338,92.6156,2023,8.07,175,0,61,28,3,2,0.06,50,8,7,19,2,0.39,,
202300109,109,Andaman & Nicobar Islands,South Andaman,,Tushnabad,11.6791,92.6362,2023,8.22,838,0,104,53,231,14,0.05,200,16,39,101,2,0.30,,
202300110,110,Andaman & Nicobar Islands,South Andaman,,Vijaynagar,11.9992,93.0093,2023,8.03,539,0,140,103,0,5,0.02,155,20,26,56,5,0.00,,
202300111,111,Andaman & Nicobar Islands,South Andaman,,Wandur – 2,11.5878,92.6166,2023,8.30,1910,0,695,245,42,12,0.01,365,50,58,242,12,0.34,,
202300112,112,Andaman & Nicobar Islands,South Andaman,,Wimberleyganj,11.7403,92.7072,2023,8.00,451,0,214,18,28,1,0.00,165,26,24,29,4,0.09,,
202300113,113,Andaman & Nicobar Islands,South Andaman,,Wrightmyo,11.7793,92.7087,2023,8.21,75,0,18,7,9,1,0.10,15,4,1,7,3,0.00,,
202300114,114,Arunachal Pradesh,Changlang,,Jairampur,27.3561,96.0144,2023,7.29,265,0,165,23,21,0,,160,32,19,11,4,0.08,,
202300115,115,Arunachal Pradesh,Changlang,,Namchik,27.4146,95.972,2023,7.29,279,0,165,40,17,0,,155,30,19,12,4,0.07,,
202300116,116,Arunachal Pradesh,Changlang,,Namphai,27.4461,96.1086,2023,7.26,261,0,177,10,18,0,,150,36,15,12,4,0.06,,
202300117,117,Arunachal Pradesh,Changlang,,Newlisan Kharsang,27.4269,96.0418,2023,7.24,260,0,159,23,18,0,,150,38,13,12,4,0.06,,
202300118,118,Arunachal Pradesh,East Siang,,Pasighat New,28.0362,95.3358,2023,7.99,466,0,232,27,31,2,,230,58,21,13,40,0.07,,
202300119,119,Arunachal Pradesh,East Siang,,Oyan,27.8902,95.3183,2023,7.90,469,0,238,36,38,3,,225,58,19,13,40,0.06,,
202300120,120,Arunachal Pradesh,East Siang,,Ruksin,27.8378,95.2182,2023,7.83,465,0,214,36,22,2,,220,54,21,13,40,0.05,,
202300121,121,Arunachal Pradesh,Lohit,,Lathow,27.7395,95.9098,2023,7.29,271,0,165,23,18,0,,165,40,16,12,4,0.05,,
202300122,122,Arunachal Pradesh,Papumpare,,Banderedewa I,27.1053,93.8258,2023,7.78,204,0,147,17,6,5,,130,44,5,10,3,0.03,,
202300123,123,Arunachal Pradesh,Tirap,,Deomali,27.1966,95.4628,2023,7.74,216,0,140,17,6,7,,155,38,15,11,3,0.03,,
202300124,124,Arunachal Pradesh,Tirap,,Borduria,27.1152,95.4131,2023,7.68,212,0,147,17,8,8,,95,34,2,15,4,0.03,,
202300125,125,Arunachal Pradesh,Tirap,,Hukanjuri,27.1258,95.4377,2023,7.73,212,0,147,10,6,7,,125,30,12,11,3,0.03,,
202300126,126,Assam,Baksa,,Anandapur CBlock,26.68,91.4042,2023,7.63,149,0,79,10,9,4,,60,18,4,5,13,0.07,,
202300127,127,Assam,Baksa,,Bhebla,26.6506,91.2393,2023,7.76,625,0,165,17,6,4,,115,22,15,7,30,0.16,,
202300128,128,Assam,Baksa,,Deusunga Ambarishnagar,26.7566,91.7078,2023,7.47,384,0,256,13,24,2,,230,60,19,16,28,0.06,,
202300129,129,Assam,Baksa,,Gyati Gaon,26.6594,90.9992,2023,7.55,234,0,165,10,9,1,,140,30,16,15,15,0.04,,
202300130,130,Assam,Baksa,,Hadukata,26.6086,91.1004,2023,6.55,156,0,98,17,1,1,,60,16,5,13,28,0.04,,
202300131,131,Assam,Baksa,,Kumarikata,26.7316,91.5561,2023,7.48,646,0,287,17,17,8,,235,66,17,12,14,0.10,,
202300132,132,Assam,Baksa,,Lokpala,26.6203,91.3984,2023,6.80,121,0,67,20,8,4,,40,14,1,20,9,0.04,,
202300133,133,Assam,Baksa,,Naukata,26.647,91.7233,2023,7.25,401,0,269,13,19,2,,230,46,28,16,27,0.04,,
202300134,134,Assam,Baksa,,Simla,26.6498,91.0442,2023,7.76,532,0,305,43,28,18,,205,44,23,28,76,0.14,,
202300135,135,Assam,Baksa,,Sonapur (Doomni),26.7137,91.3065,2023,6.80,414,0,122,43,32,34,,135,34,12,22,20,0.03,,
202300136,136,Assam,Baksa,,Tamulpur,26.6289,91.5709,2023,7.19,152,0,110,13,2,1,,90,28,5,10,18,0.05,,
202300137,137,Assam,Bongaigaon,,Baitamari,26.3472,90.5175,2023,7.19,148,0,79,17,10,5,,65,18,5,8,5,0.06,,
202300138,138,Assam,Bongaigaon,,Manikpur,26.4686,90.8017,2023,6.79,381,0,140,40,38,3,,115,40,4,35,15,0.05,,
202300139,139,Assam,Bongaigaon,,Medhipara Deo,26.3483,90.631,2023,6.83,119,0,79,7,1,2,,60,4,12,4,20,0.04,,
202300140,140,Assam,Cachar,,Silcoorie,24.7261,92.7861,2023,7.52,304,0,31,56,26,13,,50,6,8,33,26,0.01,,
202300141,141,Assam,Cachar,,Digharkhal,24.9992,92.5128,2023,6.37,178,0,37,23,24,17,,55,14,5,21,3,0.07,,
202300142,142,Assam,Cachar,,Poilapul,24.8319,93.1247,2023,6.24,192,0,61,40,9,7,,50,16,2,21,7,0.10,,
202300143,143,Assam,Cachar,,Tarapur,24.8297,92.9794,2023,6.63,210,0,18,36,12,42,,80,18,8,5,12,0.00,,
202300144,144,Assam,Cachar,,Kalain,24.9681,92.4086,2023,7.08,270,0,122,23,0,21,,140,48,5,14,9,0.31,,
202300145,145,Assam,Cachar,,Hilara,24.9275,92.5906,2023,6.46,334,0,85,76,5,5,,90,22,8,45,2,0.08,,
202300146,146,Assam,Cachar,,Katigora,24.8869,92.5889,2023,7.83,330,0,201,27,23,5,,165,52,8,19,13,0.55,,
202300147,147,Assam,Cachar,,Badribasti,24.8128,92.8772,2023,7.07,124,0,18,33,11,8,,30,6,4,13,5,0.05,,
202300148,148,Assam,Cachar,,Borjalinga,24.665,92.7186,2023,7.30,83,0,43,7,2,4,,30,10,1,3,8,0.15,,
202300149,149,Assam,Cachar,,Fulertol,24.7903,93.0053,2023,6.53,235,0,73,17,26,12,,75,20,6,29,5,0.17,,
202300150,150,Assam,Cachar,,Nagdirgram,24.6703,92.8797,2023,6.94,451,0,165,70,35,10,,205,54,17,31,4,0.36,,
202300151,151,Assam,Cachar,,Razabazar,24.8722,93.0647,2023,6.91,191,0,85,40,15,9,,60,16,5,28,8,0.30,,
202300152,152,Assam,Cachar,,Masimpur,24.9403,92.7269,2023,6.60,300,0,79,66,21,5,,65,14,7,42,1,0.10,,
202300153,153,Assam,Cachar,,Moinarbond,24.8533,92.8358,2023,6.84,337,0,85,46,23,2,,135,44,6,23,4,0.19,,
202300154,154,Assam,Darrang,,Konakat,26.533,92.191,2023,6.82,587,0,55,99,31,42,,200,44,22,41,5,0.05,,
202300155,155,Assam,Darrang,,Mangaldoi,26.4314,92.017,2023,7.46,858,0,446,83,25,14,,310,54,42,76,38,0.12,,
202300156,156,Assam,Dhubri,,Dhubri Town,26.02,89.9911,2023,8.05,612,0,360,63,20,5,,270,82,16,46,10,0.21,,
202300157,157,Assam,Dhubri,,Shapamari Beat,26.2383,90.375,2023,7.90,33,0,37,13,6,1,,50,10,6,4,3,0.03,,
202300158,158,Assam,Dibrugarh,,Barbaruah,27.3987,94.8787,2023,7.13,105,0,67,10,12,1,,65,24,1,4,3,0.15,,
202300159,159,Assam,Dibrugarh,,Jaipur Naharani,27.255,95.2381,2023,7.40,101,0,61,7,12,0,,55,8,8,4,3,0.16,,
202300160,160,Assam,Dibrugarh,,Azarguri Gaon,27.2617,94.8903,2023,7.58,110,0,55,7,17,0,,65,8,11,4,3,0.17,,
202300161,161,Assam,Dibrugarh,,Dikom,27.46,95.0692,2023,7.62,102,0,55,10,11,1,,65,12,8,4,3,0.17,,
202300162,162,Assam,Dibrugarh,,Chabua,27.4931,95.1895,2023,7.57,100,0,55,10,13,0,,65,12,8,4,3,0.18,,
202300163,163,Assam,East Karbi Anglong,,Bokajan L,26.0236,93.77,2023,6.80,433,0,110,76,51,0,,165,58,5,46,4,0.07,,
202300164,164,Assam,East Karbi Anglong,,Bokoliaghat,26.0508,93.2025,2023,6.60,184,0,37,53,0,5,,40,10,4,25,5,0.19,,
202300165,165,Assam,East Karbi Anglong,,Dillai,25.9658,93.8225,2023,6.56,280,0,153,30,9,4,,120,26,13,26,1,0.19,,
202300166,166,Assam,East Karbi Anglong,,Diphu 1,25.8461,93.445,2023,6.43,553,0,55,46,27,9,,40,10,4,43,12,0.19,,
202300167,167,Assam,East Karbi Anglong,,Dokmoka,26.2083,93.0656,2023,7.46,212,0,128,17,9,1,,105,40,1,10,3,1.30,,
202300168,168,Assam,East Karbi Anglong,,Donka Bey Pz,26.0261,93.8044,2023,7.06,127,0,153,40,7,1,,110,24,12,18,6,0.19,,
202300169,169,Assam,East Karbi Anglong,,Lahorijan,25.9069,93.6614,2023,6.50,103,0,43,23,12,2,,55,10,7,8,4,0.02,,
202300170,170,Assam,East Karbi Anglong,,Lakhijan,26.0506,93.7482,2023,6.53,120,0,85,7,0,1,,65,18,5,7,2,0.19,,
202300171,171,Assam,East Karbi Anglong,,Manja,25.97,93.4408,2023,6.93,210,0,55,46,11,3,,40,10,4,30,7,0.19,,
202300172,172,Assam,East Karbi Anglong,,Mohendijua,25.9944,93.411,2023,6.76,207,0,24,30,1,13,,40,12,2,14,3,0.19,,
202300173,173,Assam,East Karbi Anglong,,Phuloni,26.1708,93.1367,2023,7.16,739,0,464,40,13,16,,320,90,23,64,10,0.19,,
202300174,174,Assam,East Karbi Anglong,,Saphapani,26.1964,93.7953,2023,6.74,372,0,49,27,2,3,,50,12,5,10,3,0.19,,
202300175,175,Assam,East Karbi Anglong,,Silanijan,26.3217,93.8722,2023,6.90,110,0,43,36,11,5,,40,10,4,23,9,0.19,,
202300176,176,Assam,East Karbi Anglong,,Srirampur Forest,26.2181,93.0201,2023,7.54,388,0,293,13,3,1,,150,48,7,44,3,0.06,,
202300177,177,Assam,East Karbi Anglong,,Swarghati,26.2042,93.1047,2023,7.73,404,0,250,20,13,3,,170,42,16,34,4,0.19,,
202300178,178,Assam,Goalpara,,Agia,26.0827,90.5641,2023,6.89,41,0,24,10,6,0,,25,4,4,5,1,0.03,,
202300179,179,Assam,Goalpara,,Baida,26.0258,90.4164,2023,6.83,37,0,31,7,5,1,,20,4,2,5,1,0.02,,
202300180,180,Assam,Goalpara,,Dudhnoi,25.9825,90.7817,2023,6.50,373,0,67,63,33,1,,110,30,8,29,14,0.04,,
202300181,181,Assam,Goalpara,,Salpara,26.0128,90.7008,2023,6.99,64,0,647,17,5,0,,475,6,112,4,1,0.02,,
202300182,182,Assam,Goalpara,,Sarapara,25.9714,90.9525,2023,7.20,266,0,201,10,5,5,,105,22,12,25,2,0.48,,
202300183,183,Assam,Golaghat,,2 No. Balijan,26.4811,93.8365,2023,6.90,204,0,122,10,12,5,,125,34,10,4,3,0.19,,
202300184,184,Assam,Golaghat,,Bokaghat,26.6372,93.6278,2023,6.63,165,0,134,20,14,4,,110,28,10,8,7,0.04,,
202300185,185,Assam,Golaghat,,Dakkhin Hengra,26.5978,94.0614,2023,7.31,262,0,177,36,5,1,,140,40,10,16,2,0.19,,
202300186,186,Assam,Golaghat,,Garampani,26.3925,93.8806,2023,6.73,298,0,43,33,31,38,,90,20,10,21,15,0.19,,
202300187,187,Assam,Golaghat,,Haldibari Burhi Aai,26.5872,93.3258,2023,6.99,106,0,55,17,10,6,,40,10,4,12,4,0.02,,
202300188,188,Assam,Golaghat,,Upper Merapani,26.52,94.1364,2023,6.50,226,0,128,7,5,1,,100,26,8,17,2,0.19,,
202300189,189,Assam,Hailakandi,,Katlicherra New,24.4619,92.6411,2023,7.37,375,0,171,30,37,5,,170,56,7,28,6,0.41,,
202300190,190,Assam,Hailakandi,,Burakhai,24.6292,92.6914,2023,7.01,198,0,147,10,3,4,,120,30,11,6,2,0.30,,
202300191,191,Assam,Hailakandi,,Lala,24.5978,92.5619,2023,6.46,141,0,140,7,3,10,,50,8,7,34,3,0.15,,
202300192,192,Assam,Hojai,,Lanka,25.9214,92.9508,2023,6.95,786,0,415,116,6,0,,325,98,19,62,1,0.17,,
202300193,193,Assam,Hojai,,Zebra Khua,26.1386,92.8086,2023,7.55,225,0,147,20,5,7,,75,22,5,27,4,0.17,,
202300194,194,Assam,Jorhat,,Kokilamukh,26.8194,94.1678,2023,6.74,259,0,201,23,11,4,,170,46,13,13,4,0.05,,
202300195,195,Assam,Jorhat,,Kunwari Pukhuri,26.6983,94.2072,2023,7.03,533,0,220,40,65,14,,205,40,25,24,67,0.31,,
202300196,196,Assam,Kamrup,,Boko,25.9833,91.245,2023,7.10,145,0,98,10,5,2,,70,22,4,6,3,0.14,,
202300197,197,Assam,Kamrup,,Chhaygaon,26.0411,91.3597,2023,7.32,330,0,214,13,13,4,,180,62,6,9,3,0.12,,
202300198,198,Assam,Kamrup,,Rani Ii,26.0651,91.6061,2023,6.52,110,0,18,20,9,0,,35,10,2,6,9,0.04,,
202300199,199,Assam,Kamrup,,Abhaypur,26.2542,91.5539,2023,7.27,489,0,501,126,23,13,,450,80,61,81,20,0.19,,
202300200,200,Assam,Kamrup,,Dhobartari,26.2479,91.6904,2023,7.26,260,0,67,46,51,11,,145,48,6,32,8,0.41,,
202300201,201,Assam,Kamrup,,Kachkatc,26.1175,91.9643,2023,7.34,345,0,110,73,51,3,,105,26,10,36,21,0.04,,
202300202,202,Assam,Kamrup,,Khetri Ii,26.1135,92.0822,2023,7.34,306,0,79,17,33,1,,90,14,13,7,4,0.04,,
202300203,203,Assam,Kamrup,,Rangia,26.4375,91.6239,2023,8.32,654,9,501,80,36,3,,370,90,35,52,77,0.11,,
202300204,204,Assam,Kamrup,,Sualkuchi,26.1672,91.5708,2023,7.24,518,0,586,109,28,33,,460,92,56,76,52,0.19,,
202300205,205,Assam,Kamrup,,Topatoli N/Bamfo,26.1033,92.1383,2023,6.83,248,0,159,13,18,2,,145,34,15,5,2,0.09,,
202300206,206,Assam,Karimganj,,Badarpur,24.8711,92.5972,2023,7.24,156,0,18,13,35,12,,50,12,5,13,7,0.06,,
202300207,207,Assam,Karimganj,,Sarkaribari,24.565,92.4122,2023,6.71,180,0,73,20,11,18,,85,24,6,8,5,0.14,,
202300208,208,Assam,Karimganj,,Hatikira,24.4611,92.3181,2023,7.40,173,0,79,13,31,2,,75,20,6,10,4,0.33,,
202300209,209,Assam,Karimganj,,Kalinagar,24.5842,92.4836,2023,7.61,305,0,183,17,16,10,,125,36,8,31,5,1.00,,
202300210,210,Assam,Karimganj,,Kayasthagram,24.7206,92.4461,2023,6.58,218,0,159,10,19,4,,60,12,7,36,3,0.20,,
202300211,211,Assam,Karimganj,,Karimganj,24.8647,92.3639,2023,7.48,260,0,159,20,25,9,,140,46,6,10,7,0.42,,
202300212,212,Assam,Karimganj,,Dhaulia,24.6239,92.3622,2023,7.07,216,0,128,20,7,3,,100,26,8,13,3,0.47,,
202300213,213,Assam,Karimganj,,Patharkandi,24.5944,92.3206,2023,6.60,186,0,122,17,1,17,,80,40,5,21,3,0.47,,
202300214,214,Assam,Karimganj,,Dengarbond,24.9183,92.5481,2023,6.74,224,0,92,27,26,11,,90,26,6,17,5,0.15,,
202300215,215,Assam,Karimganj,,Mahakul,25.4003,92.8419,2023,7.03,169,0,104,17,0,1,,55,6,10,16,4,0.31,,
202300216,216,Assam,Karimganj,,Rangamati,24.4817,92.4956,2023,6.74,132,0,24,20,6,10,,35,4,6,15,3,0.03,,
202300217,217,Assam,Morigaon,,Baghara,26.2267,92.2758,2023,7.29,3590,0,269,928,36,5,,230,56,22,474,28,0.11,,
202300218,218,Assam,Morigaon,,Jagiroad,26.12,92.1947,2023,6.45,485,0,189,50,71,7,,140,40,10,46,17,0.10,,
202300219,219,Assam,Morigaon,,Silsang Namghar,26.1217,92.3508,2023,7.23,157,0,92,23,25,1,,100,36,2,5,10,0.05,,
202300220,220,Assam,Nagaon,,Bamuni,26.3,92.8011,2023,7.19,303,0,128,30,17,2,,115,30,10,24,6,0.11,,
202300221,221,Assam,Nagaon,,Bichamari,26.4014,92.46,2023,6.89,522,0,214,50,26,35,,220,46,25,33,4,0.14,,
202300222,222,Assam,Nagaon,,Doboka,26.1319,92.8881,2023,6.94,29,0,85,10,0,1,,45,10,5,18,1,0.19,,
202300223,223,Assam,Nagaon,,Haldiati Sub Bt,26.1725,92.9433,2023,6.82,272,0,61,56,7,1,,75,14,10,34,7,0.06,,
202300224,224,Assam,Nagaon,,Kathiatoli,26.1883,92.736,2023,7.07,657,0,256,66,48,3,,250,56,27,61,25,0.10,,
202300225,225,Assam,Nagaon,,Naderigaon/ Basin Dicate,26.1592,92.6569,2023,7.16,1302,0,781,119,32,11,,370,82,40,180,166,0.17,,
202300226,226,Assam,Nagaon,,Phulaguri,26.5753,93.0853,2023,7.47,356,0,256,17,9,1,,180,54,11,28,7,0.13,,
202300227,227,Assam,Nalbari,,Athiabari,26.5985,91.2767,2023,7.78,129,0,67,23,0,6,,75,10,12,8,4,0.05,,
202300228,228,Assam,Nalbari,,Daulasal,26.2695,91.2293,2023,7.86,412,0,244,30,21,4,,210,68,10,12,17,0.12,,
202300229,229,Assam,Nalbari,,Tihu,26.4751,91.2692,2023,8.14,550,0,366,43,15,8,,265,82,15,44,11,0.21,,
202300230,230,Assam,Sonitpur,,Barchola,26.6053,92.3803,2023,7.62,128,0,49,23,12,17,,55,10,7,10,6,0.07,,
202300231,231,Assam,Sonitpur,,Chaduar,26.8546,92.7802,2023,7.91,268,0,116,43,17,5,,115,30,10,23,0,0.08,,
202300232,232,Assam,Sonitpur,,Dekhiajuli,26.7031,92.4708,2023,8.10,194,0,104,36,17,4,,80,30,1,19,8,0.13,,
202300233,233,Assam,Sonitpur,,Garumari,26.5713,92.7716,2023,7.01,173,0,92,17,16,1,,85,24,6,8,7,0.08,,
202300234,234,Assam,Sonitpur,,Tupia,26.799,92.9111,2023,7.62,247,0,147,20,19,10,,130,44,5,4,11,0.11,,
202300235,235,Assam,Tezpur,,Tezpur,26.6054,92.3802,2023,7.51,452,0,214,50,15,2,,205,54,17,32,10,0.07,,
202300236,236,Assam,Tinsukia,,Panitola,27.4954,95.2545,2023,7.42,207,0,134,17,5,5,,105,36,4,10,5,0.10,,
202300237,237,Assam,Tinsukia,,Tinsukia,27.4849,95.3519,2023,6.55,122,0,79,13,16,0,,95,20,11,4,6,0.18,,
202300238,238,Assam,Tinsukia,,Kumsang Selenguri,27.6197,95.6331,2023,7.21,103,0,55,10,12,1,,60,10,8,4,3,0.15,,
202300239,239,Assam,Tinsukia,,Borgolai,27.2775,95.713,2023,7.61,101,0,61,7,13,0,,65,12,8,4,2,0.17,,
202300240,240,Assam,Tinsukia,,Digboi,27.3803,95.6154,2023,7.30,103,0,55,7,13,1,,60,10,8,4,3,0.16,,
202300241,241,Assam,Tinsukia,,Jagun,27.383,95.9036,2023,7.44,102,0,61,7,13,1,,70,10,11,4,3,0.17,,
202300242,242,Assam,Tinsukia,,Lekhapani,27.3197,95.8181,2023,7.61,200,0,128,13,5,6,,120,42,4,10,3,0.05,,
202300243,243,Assam,Tinsukia,,Tirap Gate,27.3331,95.8483,2023,6.84,109,0,67,10,12,0,,65,16,6,4,3,0.20,,
202300244,244,Assam,Udalguri,,Hatitopagaon,26.8517,92.3095,2023,7.79,150,0,79,20,11,12,,65,16,6,19,5,0.12,,
202300245,245,Assam,Udalguri,,Kachabil,26.7517,91.9128,2023,7.83,95,0,43,13,18,2,,65,24,1,4,3,0.05,,
202300246,246,Assam,Udalguri,,Rowta Chariali,26.7117,92.2056,2023,8.37,630,21,256,63,42,11,,220,72,10,56,23,0.24,,
202300247,247,Assam,Udalguri,,Token Katta,26.6349,91.9145,2023,8.23,215,0,110,20,34,9,,135,48,4,3,6,0.11,,
202300248,248,Assam,West Karbi Anglong,,Boithalangsu,25.9728,92.5978,2023,6.59,175,0,73,17,8,0,,60,10,8,11,1,0.06,,
202300249,249,Assam,West Karbi Anglong,,Donkamokam,25.9328,92.71,2023,6.45,132,0,55,23,2,0,,25,8,1,18,2,0.04,,
202300250,250,Assam,West Karbi Anglong,,Kalonga,25.8617,92.7678,2023,6.54,90,0,37,23,3,3,,35,6,5,15,6,0.01,,
202300251,251,Assam,West Karbi Anglong,,Kheronighat,25.8475,92.8842,2023,7.36,339,0,85,53,27,24,,90,28,5,32,11,0.03,,
202300252,252,Assam,Biswanath,,Borgang New (Koherbari),26.8346,93.2946,2023,7.77,465,0,232,30,34,2,,225,56,21,13,40,0.05,,
202300253,253,Assam,Biswanath,,Behali,26.8323,93.3578,2023,7.75,457,0,189,36,18,3,,220,62,16,13,0,0.04,,
202300254,254,Assam,Biswanath,,Biswanath Chariali,26.7253,93.1518,2023,7.75,465,0,214,36,14,2,,225,58,19,13,25,0.05,,
202300255,255,Assam,Biswanath,,Gohpur New,26.88,93.6099,2023,7.82,471,0,214,46,19,3,,225,58,19,13,40,0.05,,
202300256,256,Assam,Biswanath,,Helem New,26.85,93.4658,2023,7.99,458,0,232,36,31,2,,235,56,23,14,41,0.06,,
202300257,257,Assam,Dhemaji,,Bordoloni,27.4134,94.4272,2023,7.54,179,0,153,23,4,0,,170,32,22,11,4,0.05,,
202300258,258,Assam,Dhemaji,,Dhemaji,27.5117,94.5878,2023,7.88,182,0,165,23,1,0,,165,32,21,11,3,0.08,,
202300259,259,Assam,Dhemaji,,Santipur,27.5553,94.505,2023,7.59,262,0,159,20,4,0,,170,44,15,11,3,0.04,,
202300260,260,Assam,Dhemaji,,Bhagaban Charali,27.7098,94.8566,2023,7.25,274,0,171,20,14,0,,145,38,12,12,3,0.06,,
202300261,261,Assam,Dhemaji,,Bijoypur,27.7804,95.1668,2023,7.28,274,0,177,23,16,0,,160,34,18,12,4,0.06,,
202300262,262,Assam,Dhemaji,,Jonai Murkongselek,27.8367,95.1467,2023,7.55,250,0,183,23,4,0,,175,30,24,11,3,0.04,,
202300263,263,Assam,Dhemaji,,Telem,27.7125,95.0556,2023,7.84,202,0,165,13,2,5,,120,42,4,10,3,0.05,,
202300264,264,Assam,Dhemaji,,Siripani,27.5828,94.65,2023,7.70,267,0,165,20,2,0,,165,26,24,11,3,0.07,,
202300265,265,Assam,Dhemaji,,Sisibargaon,27.5417,94.7222,2023,7.72,200,0,134,10,1,5,,120,42,4,10,3,0.05,,
202300266,266,Assam,Lakhimpur,,Bihpuria,27.0333,93.9083,2023,7.93,203,0,165,10,2,4,,120,40,5,10,3,0.04,,
202300267,267,Assam,Lakhimpur,,Boginadi Balijan New,27.3836,94.189,2023,7.74,202,0,159,10,2,5,,125,42,5,10,3,0.03,,
202300268,268,Assam,Lakhimpur,,Borbil Tariyani,27.4029,94.1746,2023,7.27,112,0,61,17,6,1,,75,12,11,3,2,0.11,,
202300269,269,Assam,Lakhimpur,,Kadam,27.3,94.15,2023,7.71,384,0,134,40,15,26,,205,44,23,16,6,0.05,,
202300270,270,Assam,Lakhimpur,,Moridirgha,27.3235,94.1356,2023,7.64,378,0,159,40,15,26,,195,50,17,28,6,0.05,,
202300271,271,Assam,Lakhimpur,,Pathalipam,27.4477,94.23,2023,8.12,466,0,226,43,22,2,,205,58,15,13,41,0.10,,
202300272,272,Assam,Lakhimpur,,Pathalipam Ii,27.44,94.21,2023,7.80,436,0,244,30,10,2,,230,54,23,13,40,0.05,,
202300273,273,Assam,Lakhimpur,,Harmoti,27.1229,93.8539,2023,7.57,383,0,153,46,5,26,,175,46,14,27,6,0.05,,
202300274,274,Assam,Lakhimpur,,Dejoo,27.2716,94.0253,2023,7.65,204,0,140,7,2,5,,125,44,4,10,3,0.05,,
202300275,275,Assam,Lakhimpur,,Koilamari 6 No Line,27.3159,94.0425,2023,7.66,376,0,147,43,9,26,,190,46,18,27,6,0.04,,
202300276,276,Assam,Lakhimpur,,N. Lakhipur,27.2224,94.1028,2023,7.68,380,0,159,40,13,26,,185,48,16,27,6,0.05,,
202300277,277,Assam,Lakhimpur,,Panigaon,27.1374,94.1107,2023,7.83,464,0,214,50,6,2,,215,60,16,13,4,0.08,,
202300278,278,Assam,Lakhimpur,,Dolanghat Chara,27.1633,93.9984,2023,7.62,368,0,147,40,3,26,,170,44,15,27,6,0.04,,
202300279,279,Assam,Lakhimpur,,Bhogpur Charali,27.0466,93.8328,2023,7.72,200,0,153,13,2,5,,120,40,5,10,3,0.03,,
202300280,280,Assam,Lakhimpur,,Narayanpur,26.9535,93.8549,2023,7.79,451,0,220,36,10,2,,215,54,19,13,40,0.05,,
202300281,281,Bihar,Araria,,Araria,26.1432,87.4609,2023,7.91,522,0,195,46,13,29,0.00,200,36,27,24,6,0.09,,
202300282,282,Bihar,Araria,,Paikapar,26.0653,87.1504,2023,7.63,596,0,201,71,17,18,0.11,260,60,27,16,1,0.70,,
202300283,283,Bihar,Araria,,Bathnaha 1,26.0693,87.1497,2023,7.84,199,0,85,11,9,6,0.00,80,14,11,5,5,0.13,,
202300284,284,Bihar,Araria,,Haripur,26.2315,87.2315,2023,7.54,350,0,159,18,9,9,0.00,155,36,16,9,1,0.13,,
202300285,285,Bihar,Araria,,Matiyari,26.3206,87.251,2023,7.89,826,0,262,96,38,27,0.19,270,58,30,53,19,0.85,,
202300286,286,Bihar,Araria,,Jokihat,26.1612,87.6559,2023,7.91,1004,0,403,89,39,5,0.00,320,64,39,71,24,0.29,,
202300287,287,Bihar,Araria,,Palasi,26.3228,87.224,2023,7.92,259,0,92,28,11,1,0.00,125,40,6,1,2,0.34,,
202300288,288,Bihar,Araria,,Raniganj,26.0949,87.2321,2023,7.72,559,0,214,46,17,28,0.15,240,62,21,15,5,0.12,,
202300289,289,Bihar,Araria,,Sikti,26.4064,87.5479,2023,7.81,389,0,140,46,13,1,0.00,135,36,11,25,2,0.32,,
202300290,290,Bihar,Arwal,,Arwal,25.2495,84.6668,2023,7.65,1031,0,329,121,43,32,0.19,370,90,35,55,22,0.65,,
202300291,291,Bihar,Arwal,,Dirpal Bigha,25.2943,84.7032,2023,7.81,488,0,183,28,12,50,0.13,200,50,18,19,1,0.69,,
202300292,292,Bihar,Arwal,,Imamganj,25.2152,84.7489,2023,7.93,678,0,287,43,30,11,0.21,280,64,29,22,10,0.61,,
202300293,293,Bihar,Arwal,,Madhubani,25.1904,84.6045,2023,7.97,266,0,104,21,15,0,0.00,125,30,12,4,1,0.43,,
202300294,294,Bihar,Arwal,,Kaler,25.1172,84.5002,2023,7.78,603,0,232,53,33,4,0.15,260,88,10,13,9,0.50,,
202300295,295,Bihar,Arwal,,Bairbigha,25.1535,84.7151,2023,7.82,657,0,262,53,28,13,0.00,220,50,23,47,3,0.36,,
202300296,296,Bihar,Arwal,,Kinjer,25.2168,84.8291,2023,7.89,405,0,183,28,10,5,0.00,175,60,6,11,1,0.39,,
202300297,297,Bihar,Arwal,,Kurtha,25.1247,84.8089,2023,7.96,739,0,348,43,18,3,0.23,265,68,23,47,4,0.54,,
202300298,298,Bihar,Arwal,,Jhunathi,25.2114,84.8853,2023,8.11,648,0,281,43,29,0,0.14,250,58,26,34,1,0.60,,
202300299,299,Bihar,Arwal,,Bansi Surajpur,25.1146,84.7324,2023,8.03,1616,0,549,206,64,3,0.00,560,40,112,109,8,0.74,,
202300300,300,Bihar,Aurangabad,,Aurangabad,24.7462,84.3845,2023,7.85,2614,0,848,366,67,30,0.00,880,138,130,175,40,0.75,,
202300301,301,Bihar,Aurangabad,,Parnawa,24.8407,84.3445,2023,7.84,586,0,220,50,24,20,0.11,245,72,16,21,1,0.72,,
202300302,302,Bihar,Aurangabad,,Barun,24.8685,84.2128,2023,8.05,485,0,195,39,22,6,0.00,205,18,39,16,1,0.68,,
202300303,303,Bihar,Aurangabad,,Narari Kala,24.7877,84.1491,2023,7.88,683,0,256,64,29,9,0.00,240,88,5,47,2,0.66,,
202300304,304,Bihar,Aurangabad,,Daudnagar,25.0346,84.4049,2023,8.01,1635,0,458,263,59,15,0.17,515,80,77,120,31,0.63,,
202300305,305,Bihar,Aurangabad,,Deo1,24.6687,84.4401,2023,7.78,1185,0,512,82,44,14,0.11,325,32,60,122,1,0.82,,
202300306,306,Bihar,Aurangabad,,Deohara Goh,25.0045,84.5793,2023,7.98,805,0,305,67,44,16,0.00,250,62,23,68,3,0.38,,
202300307,307,Bihar,Aurangabad,,Dhobi Tola Goh,24.984,84.6477,2023,7.93,1906,0,531,280,91,38,0.00,510,120,51,181,36,0.29,,
202300308,308,Bihar,Aurangabad,,Etwan,25.044,84.5447,2023,8.10,553,0,232,43,20,7,0.25,190,50,16,35,7,0.46,,
202300309,309,Bihar,Aurangabad,,Kutumba,24.6128,84.2209,2023,7.81,1395,0,488,153,56,31,0.00,360,48,58,139,28,0.74,,
202300310,310,Bihar,Aurangabad,,Mahauli,24.6146,84.1626,2023,7.95,1509,0,506,185,69,9,0.00,435,98,46,131,26,0.80,,
202300311,311,Bihar,Aurangabad,,Nabinagar,24.6399,84.1139,2023,8.03,659,0,311,28,25,10,0.15,185,34,24,64,2,0.80,,
202300312,312,Bihar,Aurangabad,,Obra,24.8894,84.3724,2023,7.92,821,0,336,64,26,22,0.24,290,86,18,52,4,0.77,,
202300313,313,Bihar,Aurangabad,,Rafiganj,24.8151,84.6318,2023,7.76,1133,0,470,103,15,20,0.00,315,48,47,109,13,0.55,,
202300314,314,Bihar,Aurangabad,,Tineri Morh,24.871,84.6429,2023,7.68,607,0,287,32,21,1,0.19,205,48,21,45,0,0.57,,
202300315,315,Bihar,Banka,,Amarpur,25.0387,86.903,2023,7.98,825,0,275,107,22,14,0.05,225,46,27,78,15,0.18,,
202300316,316,Bihar,Banka,,English Morh,24.9959,86.9057,2023,7.83,705,0,244,71,28,30,0.00,210,50,21,57,12,0.14,,
202300317,317,Bihar,Banka,,Rampur,25.0055,86.8448,2023,7.99,1312,0,378,170,86,18,0.08,470,100,53,76,18,0.13,,
202300318,318,Bihar,Banka,,Banka,24.8823,86.9234,2023,7.69,662,0,183,114,12,12,0.05,190,36,24,55,15,0.25,,
202300319,319,Bihar,Banka,,Chandan,24.6171,86.665,2023,7.91,438,0,153,53,12,4,0.00,170,42,16,23,1,0.73,,
202300320,320,Bihar,Banka,,Baunsi,24.8013,87.0239,2023,7.78,2042,0,641,231,136,34,0.22,500,128,44,236,4,1.18,,
202300321,321,Bihar,Banka,,Panjwara,24.853,87.0972,2023,8.03,576,0,153,71,38,30,0.00,175,40,18,46,9,0.40,,
202300322,322,Bihar,Banka,,Tinmurty,24.9179,86.6018,2023,8.03,718,0,244,99,13,8,0.00,190,40,22,73,7,0.12,,
202300323,323,Bihar,Banka,,Katuria,24.7457,86.7223,2023,7.96,1133,0,305,160,60,36,0.09,355,90,32,83,23,0.39,,
202300324,324,Bihar,Banka,,Kharharia,25.1324,86.9327,2023,7.85,530,0,183,64,19,0,0.00,190,28,29,33,1,1.08,,
202300325,325,Bihar,Banka,,Sambhuganj,25.0806,86.7333,2023,7.94,904,0,305,124,16,9,0.00,230,64,17,55,81,0.61,,
202300326,326,Bihar,Banka,,Mirzapur,25.0806,86.7606,2023,7.92,832,0,214,142,29,5,0.00,155,30,19,119,4,1.63,,
202300327,327,Bihar,Begusarai,,Bagrash,25.559,86.2611,2023,7.83,828,0,336,53,53,11,0.15,350,80,36,22,10,0.47,,
202300328,328,Bihar,Begusarai,,Bakhri Salauna,25.6001,86.261,2023,7.61,1192,0,458,85,75,25,0.00,475,106,51,41,26,0.71,,
202300329,329,Bihar,Begusarai,,Peernagar,25.5769,86.2,2023,7.95,1617,0,555,149,128,8,0.00,625,126,75,70,25,0.33,,
202300330,330,Bihar,Begusarai,,Badi Balia,25.4191,86.2755,2023,7.74,953,0,421,50,57,3,0.00,395,56,62,31,10,0.59,,
202300331,331,Bihar,Begusarai,,Bariarpur,25.399,86.263,2023,7.95,1336,0,543,78,85,28,0.00,550,58,98,41,23,0.35,,
202300332,332,Bihar,Begusarai,,Laxminia  *,25.4184,86.3151,2023,7.82,598,0,336,7,11,0,0.00,290,46,43,3,3,0.39,,
202300333,333,Bihar,Begusarai,,Parihara,25.536,86.2738,2023,8.18,2165,0,647,295,98,38,0.00,700,156,75,154,39,0.68,,
202300334,334,Bihar,Begusarai,,Pokharia,25.4186,86.2648,2023,7.63,809,0,366,50,32,4,0.11,355,80,38,20,4,0.26,,
202300335,335,Bihar,Begusarai,,Rahatpur,25.3857,86.2525,2023,7.78,792,0,372,32,41,1,0.00,355,64,47,16,6,0.55,,
202300336,336,Bihar,Begusarai,,Choti Balia,25.4221,86.3043,2023,7.78,692,0,360,18,19,4,0.00,330,62,43,3,8,0.41,,
202300337,337,Bihar,Begusarai,,Barun ‘0’ Mile,25.4476,86.0272,2023,7.74,949,0,445,46,39,1,0.00,440,84,56,12,8,0.65,,
202300338,338,Bihar,Begusarai,,Barieghu,25.3999,86.1422,2023,8.02,1084,0,488,64,26,32,0.00,435,98,46,41,13,0.46,,
202300339,339,Bihar,Begusarai,,Begusarai Fc/Ib,25.4299,86.1371,2023,8.11,882,0,366,60,40,18,0.00,345,72,40,41,5,0.85,,
202300340,340,Bihar,Begusarai,,Haridia,25.4539,86.1409,2023,7.85,1155,0,366,128,91,5,0.13,470,64,75,40,15,0.49,,
202300341,341,Bihar,Begusarai,,Harpur,25.4388,86.0769,2023,7.93,769,0,384,25,29,0,0.00,355,98,27,12,3,0.48,,
202300342,342,Bihar,Begusarai,,Kaithma,25.3909,86.1482,2023,8.14,758,0,421,14,13,0,0.00,345,58,49,10,8,0.94,,
202300343,343,Bihar,Begusarai,,Lakho,25.4128,86.1866,2023,7.73,691,0,354,21,19,7,0.00,280,40,44,29,1,0.78,,
202300344,344,Bihar,Begusarai,,Mohanpur Usrai,25.521,86.1287,2023,7.73,717,0,403,11,11,3,0.00,325,58,44,14,2,0.75,,
202300345,345,Bihar,Begusarai,,Simri,25.6131,86.2222,2023,7.89,1041,0,439,57,77,1,0.00,425,92,47,35,14,0.44,,
202300346,346,Bihar,Begusarai,,Cheriya Bariyarpur,25.5853,86.0906,2023,7.81,1994,0,616,259,99,29,0.00,685,190,51,126,29,0.88,,
202300347,347,Bihar,Begusarai,,Gopalpur,25.6315,86.0225,2023,7.91,1055,0,409,64,95,2,0.08,455,92,55,27,13,0.36,,
202300348,348,Bihar,Begusarai,,Kumbhidera,25.6524,86.06,2023,7.66,1987,0,506,348,75,15,0.00,705,150,80,117,25,0.42,,
202300349,349,Bihar,Begusarai,,Manjaul   *,25.5653,86.1233,2023,7.95,1640,0,482,167,157,28,0.00,605,134,66,87,21,1.02,,
202300350,350,Bihar,Begusarai,,Aghara,25.6175,86.0358,2023,7.65,1051,0,323,121,86,3,0.00,360,60,51,70,8,0.05,,
202300351,351,Bihar,Begusarai,,Kumarshan,25.6308,86.2008,2023,7.61,1148,0,439,78,92,10,0.16,505,102,61,31,0,0.50,,
202300352,352,Bihar,Begusarai,,Dariarpur,25.3646,86.2265,2023,7.65,831,0,305,64,70,1,0.00,380,56,58,14,5,0.32,,
202300353,353,Bihar,Begusarai,,Matihani,25.3682,86.1638,2023,7.88,950,0,348,67,90,2,0.00,405,112,30,25,11,0.41,,
202300354,354,Bihar,Begusarai,,Badalpura,25.3792,86.1573,2023,7.98,830,0,403,36,29,7,0.00,380,64,53,12,5,0.18,,
202300355,355,Bihar,Begusarai,,Heera Tola,25.4626,86.4432,2023,7.97,848,0,366,43,57,7,0.00,380,62,55,14,10,0.36,,
202300356,356,Bihar,Begusarai,,New Jafar,25.426,86.3754,2023,8.01,1042,0,427,57,63,27,0.00,465,86,61,21,10,0.79,,
202300357,357,Bihar,Begusarai,,Raghunathpur,25.4414,86.4424,2023,7.75,1213,0,531,85,38,17,0.00,485,114,49,45,17,0.21,,
202300358,358,Bihar,Begusarai,,Sabdalpur,25.4256,86.4343,2023,7.82,829,0,384,36,26,24,0.00,370,58,55,14,12,0.28,,
202300359,359,Bihar,Begusarai,,Bintoli     * Kalayanpur,25.426,86.4179,2023,7.94,987,0,439,50,43,21,0.17,390,80,46,46,5,0.21,,
202300360,360,Bihar,Begusarai,,Teghra,25.4832,85.9483,2023,7.92,924,0,421,57,37,1,0.16,405,76,52,22,6,0.37,,
202300361,361,Bihar,Begusarai,,Dularpur,25.5137,85.9242,2023,7.74,768,0,403,21,24,0,0.07,360,62,50,10,0,0.28,,
202300362,362,Bihar,Bhagalpur,,Bhagalpur,25.2292,86.9792,2023,7.68,741,0,342,21,55,2,0.12,295,42,46,34,1,0.91,,
202300363,363,Bihar,Bhagalpur,,Bihpur,25.3916,86.9416,2023,7.81,661,0,214,89,26,1,0.00,285,60,33,21,1,0.09,,
202300364,364,Bihar,Bhagalpur,,Marwa,25.3988,86.9221,2023,7.76,686,0,262,75,20,4,0.00,305,60,38,16,1,0.00,,
202300365,365,Bihar,Bhagalpur,,Harchandpur,25.2394,87.3361,2023,7.85,1301,0,360,178,95,3,0.00,440,68,66,91,11,0.43,,
202300366,366,Bihar,Bhagalpur,,Jagnathpur,25.2642,87.2808,2023,8.05,920,0,360,50,60,40,0.00,350,56,51,49,1,0.38,,
202300367,367,Bihar,Bhagalpur,,Jagdishpur,25.1625,86.9833,2023,7.73,1212,0,488,89,79,0,0.00,330,30,62,122,7,0.29,,
202300368,368,Bihar,Bhagalpur,,Ghoga,25.1552,87.1651,2023,7.94,1505,0,305,277,101,9,0.00,520,118,55,100,12,0.25,,
202300369,369,Bihar,Bhagalpur,,Kahalgaon,25.2542,87.2417,2023,7.64,873,0,256,85,66,44,0.16,265,56,30,71,15,0.25,,
202300370,370,Bihar,Bhagalpur,,Ramchandrapur Navtoliya,25.2367,86.89,2023,8.03,1684,0,427,206,101,119,0.00,605,68,106,101,15,0.45,,
202300371,371,Bihar,Bhagalpur,,Naugachia,25.3858,87.1068,2023,7.68,927,0,262,146,40,4,0.00,365,58,53,44,1,0.26,,
202300372,372,Bihar,Bhagalpur,,Pirpainti,25.8363,87.4194,2023,8.18,1112,0,348,135,76,1,0.00,345,56,50,93,7,0.31,,
202300373,373,Bihar,Bhagalpur,,Madrauni Chowk,25.3977,87.1713,2023,7.94,774,0,250,107,30,0,0.00,320,50,47,29,1,0.28,,
202300374,374,Bihar,Bhagalpur,,Nayatola Agarpur,25.1811,87.0436,2023,8.09,1215,0,378,135,75,32,0.00,315,52,45,126,15,0.25,,
202300375,375,Bihar,Bhagalpur,,Sabaur,25.246,87.046,2023,7.94,1505,0,580,99,117,15,0.00,460,126,35,122,20,0.49,,
202300376,376,Bihar,Bhagalpur,,Shahkund,25.175,86.8125,2023,7.91,842,0,201,99,81,37,0.17,265,70,22,65,14,0.75,,
202300377,377,Bihar,Bhagalpur,,Sonhaula,25.0897,87.1622,2023,7.85,665,0,281,43,41,4,0.00,230,66,16,47,2,0.31,,
202300378,378,Bihar,Bhagalpur,,Akbarnagar,25.225,86.8083,2023,8.02,955,0,238,128,67,37,0.00,390,98,35,38,2,0.58,,
202300379,379,Bihar,Bhagalpur,,Sultanganj,25.2417,86.7,2023,7.76,1021,0,329,85,80,46,0.00,310,78,28,79,22,0.43,,
202300380,380,Bihar,Bhojpur,,Haswadih,25.407,84.4027,2023,8.12,671,0,232,71,32,10,0.00,270,56,32,29,5,0.59,,
202300381,381,Bihar,Bhojpur,,Jarawarpur Milki,25.5953,84.5342,2023,8.01,582,0,287,21,20,1,0.00,205,50,19,39,4,0.48,,
202300382,382,Bihar,Bhojpur,,Milki (Milki Dera),25.6751,84.625,2023,7.96,436,0,226,18,7,0,0.00,195,18,36,9,1,0.95,,
202300383,383,Bihar,Bhojpur,,Chandawa,25.5603,84.6371,2023,8.18,449,0,207,25,9,6,0.00,185,36,23,16,3,0.55,,
202300384,384,Bihar,Bhojpur,,Bakhorapur,25.6681,84.6918,2023,8.06,428,0,195,25,11,4,0.00,180,48,15,15,2,0.82,,
202300385,385,Bihar,Bhojpur,,Balua,25.6607,84.5599,2023,7.99,841,0,378,28,52,21,0.00,335,62,44,36,5,0.60,,
202300386,386,Bihar,Bhojpur,,Barahara,25.683,84.7291,2023,7.88,645,0,214,53,47,24,0.21,215,40,28,49,3,0.54,,
202300387,387,Bihar,Bhojpur,,Baruna,25.3192,84.6041,2023,8.11,798,0,250,82,61,21,0.05,325,78,32,32,2,0.40,,
202300388,388,Bihar,Bhojpur,,Dhusaria,25.6714,84.7735,2023,7.94,829,0,207,114,50,35,0.00,315,58,41,44,7,0.91,,
202300389,389,Bihar,Bhojpur,,Ekauna,25.6872,84.7383,2023,8.11,664,0,250,67,29,4,0.16,285,60,33,20,3,0.63,,
202300390,390,Bihar,Bhojpur,,Farhda,25.685,84.6562,2023,8.08,661,0,226,57,44,21,0.00,265,58,29,31,1,0.60,,
202300391,391,Bihar,Bhojpur,,Jagatpur,25.6749,84.5981,2023,8.13,427,0,195,28,8,1,0.00,195,40,23,9,2,0.88,,
202300392,392,Bihar,Bhojpur,,Simariya,25.6724,84.7239,2023,8.13,426,0,214,18,12,1,0.00,185,36,23,12,1,0.71,,
202300393,393,Bihar,Bhojpur,,Bihiya (Dogra),25.5842,84.4709,2023,8.15,652,0,256,50,36,12,0.00,265,56,30,26,3,0.61,,
202300394,394,Bihar,Bhojpur,,Garhani (Nahsi),25.421,84.558,2023,7.98,467,0,226,18,9,16,0.00,210,24,36,9,1,0.98,,
202300395,395,Bihar,Bhojpur,,Dulaur,25.4752,84.4435,2023,7.98,411,0,153,32,16,25,0.00,135,24,18,32,3,0.61,,
202300396,396,Bihar,Bhojpur,,Jagdishpur1,25.4753,84.4156,2023,7.87,515,0,201,53,13,5,0.00,200,40,24,24,2,0.63,,
202300397,397,Bihar,Bhojpur,,Inglishpur,25.6458,84.7837,2023,7.93,387,0,183,18,11,9,0.00,160,26,23,14,1,0.71,,
202300398,398,Bihar,Bhojpur,,Kulharia,25.5753,84.7736,2023,8.18,459,0,122,50,34,26,0.00,170,22,28,28,1,0.65,,
202300399,399,Bihar,Bhojpur,,Lodhipur,25.5119,84.7341,2023,7.81,841,0,275,82,54,30,0.00,330,88,27,39,3,0.53,,
202300400,400,Bihar,Bhojpur,,Mokhlisa,25.6035,84.7501,2023,8.05,706,0,183,121,20,10,0.00,285,28,52,30,3,0.48,,
202300401,401,Bihar,Bhojpur,,Muhammadpur,25.615,84.7878,2023,8.01,646,0,207,57,62,12,0.10,270,66,26,21,5,0.63,,
202300402,402,Bihar,Bhojpur,,Pachrukhiya,25.6527,84.7889,2023,8.04,770,0,232,82,59,18,0.00,335,70,39,23,2,0.85,,
202300403,403,Bihar,Bhojpur,,Sakkadi,25.5841,84.7538,2023,8.14,449,0,165,39,27,0,0.00,185,22,32,19,1,0.96,,
202300404,404,Bihar,Bhojpur,,Songhata,25.6086,84.7631,2023,7.84,1155,0,397,124,48,30,0.00,400,82,47,65,29,0.53,,
202300405,405,Bihar,Bhojpur,,Birampur,25.6035,84.725,2023,8.18,778,0,311,46,62,5,0.00,340,78,35,20,3,0.51,,
202300406,406,Bihar,Bhojpur,,Giddha,25.5868,84.747,2023,8.09,488,0,207,36,17,2,0.00,230,42,30,7,1,0.58,,
202300407,407,Bihar,Bhojpur,,Nonar,25.2864,84.3808,2023,7.94,303,0,134,21,11,0,0.00,110,34,6,17,3,0.83,,
202300408,408,Bihar,Bhojpur,,Guljarpur,25.26,84.5973,2023,8.03,380,0,177,21,11,6,0.05,165,30,22,10,1,0.35,,
202300409,409,Bihar,Bhojpur,,Kori,25.3951,84.6891,2023,7.85,1033,0,329,117,46,42,0.00,405,90,44,49,3,0.60,,
202300410,410,Bihar,Bhojpur,,Nasratpur,25.4492,84.75,2023,7.75,581,0,214,43,34,21,0.00,270,62,28,10,1,0.60,,
202300411,411,Bihar,Bhojpur,,Pauna,25.4066,84.6288,2023,8.05,1359,0,415,170,74,27,0.01,490,104,56,69,28,1.05,,
202300412,412,Bihar,Bhojpur,,Sandesh,25.4057,84.738,2023,7.93,1544,0,506,217,44,3,0.00,590,130,64,68,27,0.81,,
202300413,413,Bihar,Bhojpur,,Karnempur,25.6675,84.3614,2023,7.97,1232,0,384,149,50,51,0.00,435,92,50,67,25,0.55,,
202300414,414,Bihar,Bhojpur,,Akrunj,25.2063,84.396,2023,8.18,340,0,159,11,10,15,0.00,145,26,19,12,3,0.62,,
202300415,415,Bihar,Bhojpur,,Kusumhi,25.23,84.3681,2023,8.21,361,0,159,18,16,4,0.00,155,16,28,11,3,0.93,,
202300416,416,Bihar,Bhojpur,,Harnath Kundi,25.5725,84.572,2023,7.99,636,0,293,36,21,3,0.00,255,58,27,29,2,0.46,,
202300417,417,Bihar,Bhojpur,,Kasap,25.4754,84.6072,2023,8.11,655,0,268,46,26,15,0.00,285,28,52,20,1,0.51,,
202300418,418,Bihar,Bhojpur,,Sasaram Chota,25.5696,84.5248,2023,8.07,437,0,195,36,8,3,0.00,175,40,18,19,1,0.43,,
202300419,419,Bihar,Bhojpur,,Udwantnagar,25.5002,84.6253,2023,7.94,1120,0,372,156,26,5,0.00,410,120,27,58,20,0.63,,
202300420,420,Bihar,Buxar,,Bagen Bazar,25.5014,84.2928,2023,8.18,426,0,207,14,10,15,0.00,150,46,9,28,1,0.66,,
202300421,421,Bihar,Buxar,,Hathilpur,25.6323,84.3178,2023,8.04,421,0,195,18,9,20,0.00,180,58,9,11,9,0.07,,
202300422,422,Bihar,Buxar,,Jugia Dera,25.5934,84.2552,2023,7.84,443,0,238,14,3,4,0.00,100,38,1,55,1,0.49,,
202300423,423,Bihar,Buxar,,Khochariwan,25.5233,84.2738,2023,7.82,475,0,244,14,4,16,0.00,180,46,16,25,1,0.72,,
202300424,424,Bihar,Buxar,,Mharajgunj,25.6098,84.3406,2023,7.94,562,0,287,21,7,11,0.00,210,50,21,31,1,0.44,,
202300425,425,Bihar,Buxar,,Raghunathpur,25.5666,84.3024,2023,7.88,1300,0,482,138,39,28,0.00,285,84,18,164,6,0.44,,
202300426,426,Bihar,Buxar,,Brahmpur,25.6078,84.3061,2023,7.93,731,0,293,64,23,16,0.00,230,58,21,60,2,0.39,,
202300427,427,Bihar,Buxar,,Buxar,25.5643,83.9794,2023,8.03,555,0,299,11,10,9,0.00,145,50,5,59,2,0.56,,
202300428,428,Bihar,Buxar,,Churamanpur Dw,25.5877,84.0237,2023,7.95,529,0,256,32,10,1,0.00,150,46,9,50,4,0.06,,
202300429,429,Bihar,Buxar,,Danikutia,25.5467,83.932,2023,7.85,667,0,311,39,17,8,0.00,225,60,18,48,1,0.54,,
202300430,430,Bihar,Buxar,,Dudharchak,25.6174,84.0557,2023,7.68,526,0,299,11,4,1,0.00,185,50,15,34,3,0.14,,
202300431,431,Bihar,Buxar,,Kritpur,25.5487,83.9416,2023,7.70,1105,0,525,67,20,9,0.10,300,44,46,106,15,0.80,,
202300432,432,Bihar,Buxar,,Mishrvalia,25.534,83.9145,2023,7.93,1758,0,567,259,20,36,0.16,640,108,90,107,4,0.70,,
202300433,433,Bihar,Buxar,,Ramobariya,25.6067,84.0553,2023,7.84,619,0,354,11,6,1,0.00,160,52,7,67,3,0.26,,
202300434,434,Bihar,Buxar,,Thodagaon,25.5527,83.9491,2023,8.05,499,0,250,18,12,10,0.00,140,46,6,48,2,0.44,,
202300435,435,Bihar,Buxar,,Bhariyar,25.609,84.24,2023,7.96,400,0,171,18,17,23,0.00,155,50,7,16,6,0.15,,
202300436,436,Bihar,Buxar,,Chaungai Sundarsingh,25.473,84.2384,2023,7.96,505,0,262,18,11,2,0.12,150,30,18,46,1,0.44,,
202300437,437,Bihar,Buxar,,Chausa,25.5107,83.89,2023,8.21,1008,0,519,28,18,20,0.11,210,32,32,101,58,0.56,,
202300438,438,Bihar,Buxar,,Dumraon,25.5813,84.1388,2023,8.13,553,0,232,43,14,12,0.00,125,46,2,70,1,0.41,,
202300439,439,Bihar,Buxar,,"Dumrawn Thatheri Bazar, Dakhin Tola",25.549,84.1503,2023,7.97,419,0,226,14,2,4,0.00,150,48,7,25,2,0.46,,
202300440,440,Bihar,Buxar,,Mahila,25.4698,84.0395,2023,7.71,601,0,305,21,7,11,0.00,140,48,5,75,1,0.54,,
202300441,441,Bihar,Buxar,,Kesath ( Pokhratola),25.4125,84.2489,2023,8.01,3098,0,970,497,43,8,0.27,845,106,141,272,91,0.46,,
202300442,442,Bihar,Buxar,,Athar Bintoli,25.4414,84.1852,2023,7.88,405,0,207,18,4,3,0.00,125,40,6,33,1,0.24,,
202300443,443,Bihar,Buxar,,Rajpur,25.6847,84.1292,2023,8.02,3055,0,830,543,44,49,0.26,840,190,89,290,43,0.71,,
202300444,444,Bihar,Buxar,,Barka Rajpur,25.6847,84.1292,2023,8.05,695,0,336,43,0,18,0.00,260,70,21,36,5,0.21,,
202300445,445,Bihar,Buxar,,Dumri,25.634,84.1831,2023,8.17,427,0,220,18,7,3,0.00,145,36,13,28,4,0.16,,
202300446,446,Bihar,Buxar,,Durasan,25.6094,84.1735,2023,7.93,372,0,177,21,11,1,0.00,125,36,9,26,2,0.23,,
202300447,447,Bihar,Buxar,,Karathar,25.651,84.184,2023,8.03,540,0,201,39,24,35,0.00,205,40,26,24,9,0.13,,
202300448,448,Bihar,Buxar,,Manikpur,25.6725,84.0929,2023,8.13,390,0,214,11,1,1,0.00,145,50,5,21,5,0.22,,
202300449,449,Bihar,Buxar,,Neazipur,25.6706,84.1542,2023,7.99,416,0,232,11,0,8,0.00,155,46,10,23,4,0.16,,
202300450,450,Bihar,Buxar,,Sohiar,25.662,84.158,2023,7.87,829,0,305,78,23,39,0.00,225,58,19,76,17,0.07,,
202300451,451,Bihar,Buxar,,Kopwa,25.5018,84.1673,2023,7.85,250,0,122,14,2,5,0.00,105,40,1,8,0,0.26,,
202300452,452,Bihar,Darbhanga,,Bilaspur,26.0211,85.8793,2023,8.29,504,0,277,7,9,3,0.00,160,34,18,49,2,0.77,,
202300453,453,Bihar,Darbhanga,,Motipur Antour,26.066,86.1668,2023,8.18,592,0,326,7,10,5,0.00,115,20,16,80,2,0.71,,
202300454,454,Bihar,Darbhanga,,Baheri,25.9507,86.0508,2023,8.27,823,0,387,50,10,5,0.00,255,50,32,64,2,0.30,,
202300455,455,Bihar,Darbhanga,,Bithauli,26.0111,86.0875,2023,8.25,625,0,388,7,7,6,0.00,90,24,7,106,1,0.53,,
202300456,456,Bihar,Darbhanga,,Jorja,26.0125,85.989,2023,8.14,733,0,412,11,12,6,0.00,125,24,16,114,1,0.39,,
202300457,457,Bihar,Darbhanga,,Bahera,26.0752,86.132,2023,8.21,1194,0,510,117,43,9,0.00,305,44,47,114,1,1.18,,
202300458,458,Bihar,Darbhanga,,Bheruk,26.0527,86.1653,2023,8.15,1290,0,504,106,87,28,0.00,380,20,80,114,2,1.02,,
202300459,459,Bihar,Darbhanga,,Afzala Balia,25.9297,86.2313,2023,8.39,1406,6,677,89,30,8,0.00,320,56,44,124,6,0.68,,
202300460,460,Bihar,Darbhanga,,Darbhanga,26.1696,85.9088,2023,8.25,1035,0,449,85,23,5,0.00,260,52,32,109,17,0.50,,
202300461,461,Bihar,Darbhanga,,Bouram,25.9748,86.3175,2023,8.14,688,0,394,14,12,5,0.00,250,52,29,32,3,0.00,,
202300462,462,Bihar,Darbhanga,,Ghanshyampur,26.0616,86.326,2023,8.27,671,0,357,18,14,5,0.00,90,20,10,114,1,1.05,,
202300463,463,Bihar,Darbhanga,,Okra,26.0373,85.8092,2023,7.76,483,0,221,14,12,4,0.00,90,20,10,61,3,0.00,,
202300464,464,Bihar,Darbhanga,,Hayaghat,26.0106,85.8877,2023,8.37,715,9,381,7,9,4,0.03,190,34,26,62,38,0.69,,
202300465,465,Bihar,Darbhanga,,Pouram,26.0195,85.8916,2023,7.54,1001,0,381,121,47,10,0.00,270,28,49,96,4,0.23,,
202300466,466,Bihar,Darbhanga,,Rustampur,26.016,85.8811,2023,8.23,393,0,203,11,8,5,0.00,100,30,6,53,1,0.00,,
202300467,467,Bihar,Darbhanga,,Keoty,26.2901,85.9416,2023,8.11,1005,0,412,67,27,4,0.00,290,52,39,85,48,0.81,,
202300468,468,Bihar,Darbhanga,,Pindaruch,26.2375,85.8413,2023,7.93,1323,0,535,128,71,12,0.00,310,22,62,114,30,0.82,,
202300469,469,Bihar,Darbhanga,,Rasiyari,26.0452,86.3478,2023,8.07,601,0,277,11,6,3,0.00,90,28,5,94,1,0.86,,
202300470,470,Bihar,Darbhanga,,Asho,25.8747,86.2447,2023,8.29,465,0,271,11,7,8,0.00,125,36,9,57,3,0.87,,
202300471,471,Bihar,Darbhanga,,Sakri,26.2238,86.0773,2023,8.20,776,0,308,50,41,7,0.00,305,36,52,34,2,0.74,,
202300472,472,Bihar,Darbhanga,,Simri,26.1675,85.7432,2023,8.18,439,0,215,14,12,4,0.00,145,38,12,30,4,0.68,,
202300473,473,Bihar,Darbhanga,,Nabbi Chowk,26.1538,86.1865,2023,8.19,676,6,375,7,7,5,0.00,135,30,15,106,1,0.74,,
202300474,474,Bihar,Darbhanga,,Tardih,26.1467,86.2513,2023,8.34,598,6,332,11,8,5,0.00,75,26,2,94,1,0.00,,
202300475,475,Bihar,East Chamapran,,Shyampur,26.9199,84.9479,2023,7.99,508,0,275,18,4,0,0.00,200,70,6,24,1,0.59,,
202300476,476,Bihar,East Chamapran,,Govindganj,26.4985,84.6533,2023,7.93,714,0,403,11,13,0,0.00,230,58,21,56,3,0.53,,
202300477,477,Bihar,East Chamapran,,Radia,26.5544,84.6251,2023,7.79,556,0,305,14,5,0,0.00,230,68,15,21,4,0.41,,
202300478,478,Bihar,East Chamapran,,Banjaria Thana,26.6734,84.8928,2023,7.95,473,0,250,11,16,0,0.00,160,36,17,33,3,0.69,,
202300479,479,Bihar,East Chamapran,,Mathia Bhopat,26.7528,85.0136,2023,8.24,876,0,354,82,31,1,0.00,300,64,34,57,8,0.73,,
202300480,480,Bihar,East Chamapran,,Chakia 1,26.5506,84.9439,2023,7.85,1032,0,512,14,74,1,0.11,385,70,51,59,2,0.73,,
202300481,481,Bihar,East Chamapran,,Uttari Gavandra,26.3554,85.0221,2023,8.03,610,0,311,11,30,6,0.00,270,64,27,9,10,0.21,,
202300482,482,Bihar,East Chamapran,,Belai,26.7032,85.073,2023,8.09,1525,0,476,195,90,5,0.00,460,90,57,123,29,0.53,,
202300483,483,Bihar,East Chamapran,,Chaita,26.5316,85.0871,2023,7.95,996,0,421,64,61,1,0.00,345,120,11,63,12,0.79,,
202300484,484,Bihar,East Chamapran,,Chiraiya,26.69,85.0889,2023,8.21,722,0,366,39,6,2,0.00,290,94,13,30,3,0.32,,
202300485,485,Bihar,East Chamapran,,Mohabbatpur Dhaka,26.6739,85.1651,2023,7.99,631,0,275,46,25,1,0.00,225,70,12,40,2,0.41,,
202300486,486,Bihar,East Chamapran,,Bhakatiy Tola,26.7862,85.1092,2023,7.82,744,0,415,18,6,1,0.00,260,80,15,52,1,0.73,,
202300487,487,Bihar,East Chamapran,,Ghorasahan,26.8165,85.1295,2023,7.95,2153,0,415,451,89,12,0.24,690,198,47,172,10,0.58,,
202300488,488,Bihar,East Chamapran,,Murarpur (Pawaria Tola),26.5925,84.7989,2023,7.79,448,0,238,11,13,1,0.00,205,48,21,5,4,0.38,,
202300489,489,Bihar,East Chamapran,,Sheoraha,26.5788,84.6777,2023,7.88,604,0,256,21,60,0,0.00,270,82,16,11,4,0.17,,
202300490,490,Bihar,East Chamapran,,Dharampur,26.4229,84.9247,2023,8.18,705,0,378,14,22,0,0.00,320,60,41,9,9,0.55,,
202300491,491,Bihar,East Chamapran,,Rajpur,26.3866,84.8924,2023,8.09,621,0,317,7,39,0,0.00,265,58,29,19,3,0.35,,
202300492,492,Bihar,East Chamapran,,Kizerpura,26.3713,84.8124,2023,8.14,904,0,421,32,60,0,0.00,340,76,36,49,3,0.33,,
202300493,493,Bihar,East Chamapran,,Lala Chapra,26.3347,84.8554,2023,8.21,853,0,415,32,42,1,0.00,340,82,33,37,5,0.28,,
202300494,494,Bihar,East Chamapran,,Rampur Kajuria Bazar,26.3909,84.7682,2023,8.00,1013,0,397,25,142,0,0.00,375,106,27,58,3,0.22,,
202300495,495,Bihar,East Chamapran,,Hussaini,26.3764,84.7807,2023,8.03,765,0,409,14,28,0,0.05,305,60,38,33,2,0.23,,
202300496,496,Bihar,East Chamapran,,Dipau,26.506,84.8314,2023,8.21,644,0,317,25,23,3,0.00,300,76,27,6,6,0.41,,
202300497,497,Bihar,East Chamapran,,Pir Mohalla,26.4374,85.1342,2023,8.22,1410,0,464,128,118,29,0.00,380,104,29,135,23,0.63,,
202300498,498,Bihar,East Chamapran,,Kasba Mehsi,26.3564,85.1188,2023,8.18,1956,0,604,202,169,29,0.16,535,104,67,189,24,0.58,,
202300499,499,Bihar,East Chamapran,,Chaudadanu,26.8304,85.0049,2023,7.88,554,0,299,14,7,1,0.00,205,66,10,34,1,0.39,,
202300500,500,Bihar,East Chamapran,,Lakhwara,26.7587,84.9775,2023,8.00,502,0,268,14,9,1,0.00,155,46,10,42,2,0.81,,
202300501,501,Bihar,East Chamapran,,Bishunpur Matiyarwan,26.6631,84.5796,2023,8.08,1022,0,439,53,69,1,0.09,410,118,28,40,11,0.48,,
202300502,502,Bihar,East Chamapran,,Pakridayal,26.5523,85.0576,2023,7.76,515,0,293,7,10,0,0.00,120,26,13,61,2,0.18,,
202300503,503,Bihar,East Chamapran,,Patahi,26.3694,85.1484,2023,7.91,798,0,342,53,39,2,0.00,305,82,24,30,25,0.20,,
202300504,504,Bihar,East Chamapran,,Khan Pipra,26.4734,85.1597,2023,7.83,763,0,439,11,6,3,0.00,190,68,5,86,3,0.28,,
202300505,505,Bihar,East Chamapran,,Jhakra,26.5506,84.9429,2023,7.99,835,0,433,36,6,8,0.00,245,92,4,68,17,0.55,,
202300506,506,Bihar,East Chamapran,,Raghunathpur,26.9157,84.8295,2023,7.90,411,0,214,18,6,0,0.00,160,52,7,19,3,0.19,,
202300507,507,Bihar,East Chamapran,,Raxaul,26.99,84.8555,2023,7.81,392,0,207,14,4,0,0.00,145,52,4,24,2,0.31,,
202300508,508,Bihar,East Chamapran,,Dubey Tola,26.532,84.7562,2023,8.19,1106,0,427,71,94,3,0.06,345,86,32,91,10,0.35,,
202300509,509,Bihar,East Chamapran,,Dumaria,26.4056,84.7494,2023,7.95,738,0,409,11,20,0,0.00,250,52,29,52,4,0.11,,
202300510,510,Bihar,East Chamapran,,Chapwa (Sugauli),26.7323,84.7519,2023,7.79,1536,0,531,181,71,7,0.11,475,142,29,117,30,0.25,,
202300511,511,Bihar,East Chamapran,,Nakardewa,26.3721,85.2337,2023,7.99,702,0,390,14,10,4,0.00,315,82,27,14,4,0.19,,
202300512,512,Bihar,East Chamapran,,Bairiya Bazar,26.6099,84.8432,2023,7.83,829,0,458,25,3,2,0.00,355,98,27,22,9,0.31,,
202300513,513,Bihar,East Chamapran,,Harpur Nawada,26.5807,84.788,2023,8.21,675,0,360,14,21,0,0.00,285,82,19,20,5,0.43,,
202300514,514,Bihar,Gaya,,Akauna,24.5756,84.7756,2023,8.12,993,0,421,107,27,8,0.00,325,122,5,95,0,2.21,,
202300515,515,Bihar,Gaya,,Guraru,24.8017,84.7836,2023,8.09,1477,0,451,202,72,4,0.00,375,104,28,159,11,1.94,,
202300516,516,Bihar,Gaya,,Sahora,24.9439,85.2033,2023,8.07,631,0,305,25,19,18,0.00,240,62,21,32,11,1.70,,
202300517,517,Bihar,Gaya,,Banke Bazar,24.5169,84.6667,2023,7.78,665,0,220,75,14,2,0.00,115,26,12,83,7,1.94,,
202300518,518,Bihar,Gaya,,Bhadeya,24.5186,84.9536,2023,7.96,557,0,238,50,10,5,0.00,205,76,4,32,3,1.90,,
202300519,519,Bihar,Gaya,,Dangra More,24.9658,85.1141,2023,7.62,744,0,244,78,19,23,0.00,225,82,5,57,2,1.71,,
202300520,520,Bihar,Gaya,,Madhobigha,24.985,85.2641,2023,8.03,1115,0,244,181,114,14,0.00,410,116,29,83,1,1.48,,
202300521,521,Bihar,Gaya,,Bhalua,24.9814,85.0119,2023,8.13,505,0,250,28,12,1,0.00,150,42,11,46,3,1.58,,
202300522,522,Bihar,Gaya,,Bodh Gaya,24.8985,85.3005,2023,7.82,616,0,214,67,18,10,0.00,175,68,1,52,10,1.56,,
202300523,523,Bihar,Gaya,,Dobhi,24.5319,84.9183,2023,7.78,1022,0,409,92,42,21,0.00,295,98,12,110,0,1.72,,
202300524,524,Bihar,Gaya,,Magra,24.4336,84.4856,2023,7.74,1326,0,354,206,79,12,0.00,410,124,24,103,34,1.60,,
202300525,525,Bihar,Gaya,,Fatehpur,24.6417,85.2292,2023,8.10,590,0,244,43,24,3,0.00,245,58,24,23,0,1.55,,
202300526,526,Bihar,Gaya,,Bithosharif,24.8439,85.0105,2023,7.60,1547,0,519,188,56,23,0.00,550,184,22,96,9,1.45,,
202300527,527,Bihar,Gaya,,Chand Chowra Chowk,24.9658,85.1141,2023,7.63,981,0,305,110,32,19,0.00,220,58,18,106,8,2.01,,
202300528,528,Bihar,Gaya,,Ram Kund,24.8117,85.0156,2023,8.00,1393,0,403,199,65,2,0.00,310,108,10,161,16,1.82,,
202300529,529,Bihar,Gaya,,Sangat Gali,24.7825,84.9997,2023,7.89,515,0,220,28,16,21,0.00,180,58,9,34,2,1.50,,
202300530,530,Bihar,Gaya,,Raghunath Khap,24.6836,84.7667,2023,7.70,1256,0,366,170,68,22,0.00,260,82,13,173,0,1.33,,
202300531,531,Bihar,Gaya,,Baseta,24.4353,84.5358,2023,7.67,1175,0,342,142,58,23,0.00,375,110,24,79,12,1.78,,
202300532,532,Bihar,Gaya,,Tarapur,24.9658,85.1141,2023,7.75,1200,0,323,170,61,23,0.00,450,126,33,61,8,1.58,,
202300533,533,Bihar,Gaya,,Konch,24.9181,84.7678,2023,7.80,2685,0,683,355,226,25,0.00,790,208,66,225,29,0.80,,
202300534,534,Bihar,Gaya,,Chanadih,24.8985,85.3005,2023,7.71,634,0,232,71,27,10,0.00,230,70,13,44,0,1.00,,
202300535,535,Bihar,Gaya,,Wazirganj,24.8042,85.2208,2023,8.12,2026,0,616,284,115,22,0.00,290,66,30,345,6,1.44,,
202300536,536,Bihar,Gopalganj,,Dekoli Bazar,26.3034,84.6912,2023,7.94,595,0,357,11,15,0,0.00,275,56,33,11,2,0.77,,
202300537,537,Bihar,Gopalganj,,Manjhwalia,26.2871,84.6866,2023,7.01,932,0,418,8,98,0,0.00,340,82,33,69,3,0.84,,
202300538,538,Bihar,Gopalganj,,Baruli,26.3886,84.5896,2023,7.99,585,0,308,11,32,0,0.00,215,66,12,29,3,0.80,,
202300539,539,Bihar,Gopalganj,,Rampur,26.4057,84.6402,2023,8.03,851,0,437,39,17,3,0.00,350,88,32,36,5,0.92,,
202300540,540,Bihar,Gopalganj,,Bhore,26.4475,84.106,2023,7.88,1319,0,437,113,70,27,0.00,440,60,70,101,7,0.30,,
202300541,541,Bihar,Gopalganj,,Misirbatha,26.4392,84.2068,2023,7.94,1096,0,400,121,43,24,0.00,450,70,67,43,2,0.45,,
202300542,542,Bihar,Gopalganj,,Bijaipur,26.4735,84.0326,2023,8.17,505,0,271,25,17,1,0.00,230,64,17,12,2,0.76,,
202300543,543,Bihar,Gopalganj,,Chanwabe,26.4033,84.3762,2023,8.26,512,0,277,11,8,0,0.00,230,40,32,22,2,0.79,,
202300544,544,Bihar,Gopalganj,,Turkaha,26.4572,84.4286,2023,8.10,588,0,289,18,22,8,0.00,235,56,23,18,3,0.81,,
202300545,545,Bihar,Gopalganj,,Yadavpur Sukal,26.5259,84.4354,2023,7.74,1029,0,320,152,61,1,0.00,400,100,36,30,8,0.95,,
202300546,546,Bihar,Gopalganj,,Hathua,26.369,84.2898,2023,8.43,518,0,264,11,25,0,0.00,260,62,26,10,2,0.74,,
202300547,547,Bihar,Gopalganj,,Lala Pachmawa,26.5414,84.0837,2023,8.48,393,27,172,11,14,0,0.00,165,48,11,15,3,0.63,,
202300548,548,Bihar,Gopalganj,,Jamunaha,26.542,84.1892,2023,7.90,1285,0,406,177,75,3,0.00,415,58,66,84,9,0.83,,
202300549,549,Bihar,Gopalganj,,Katiya,26.5712,84.0769,2023,8.17,442,0,240,18,20,0,0.00,185,58,10,10,3,0.81,,
202300550,550,Bihar,Gopalganj,,Jalalpur,26.596,84.308,2023,7.65,1237,0,431,206,70,20,0.00,420,70,60,114,2,0.25,,
202300551,551,Bihar,Gopalganj,,Bangra Deoria,26.3772,84.4484,2023,7.92,624,0,338,21,17,0,0.00,270,50,35,17,4,0.44,,
202300552,552,Bihar,Gopalganj,,NunaChhapra,26.311,84.46,2023,8.24,560,0,338,7,18,3,0.00,240,40,34,22,2,0.61,,
202300553,553,Bihar,Gopalganj,,Phulwaria,26.3928,84.5163,2023,8.17,573,0,332,11,8,5,0.00,230,42,30,35,3,0.59,,
202300554,554,Bihar,Gopalganj,,Bishambarpur,26.3426,84.4863,2023,8.13,588,0,252,39,26,24,0.00,260,32,44,15,1,0.35,,
202300555,555,Bihar,Gopalganj,,Manjha,26.4028,84.4977,2023,8.01,875,0,344,67,42,7,0.00,385,52,62,23,4,0.73,,
202300556,556,Bihar,Gopalganj,,Bangra,26.3826,84.445,2023,8.06,534,0,320,11,5,0,0.00,230,46,28,14,3,0.69,,
202300557,557,Bihar,Gopalganj,,Bhojpurwa,26.3205,84.6977,2023,7.78,842,0,351,57,59,3,0.00,320,94,21,34,39,0.60,,
202300558,558,Bihar,Gopalganj,,Lachchwar,26.3939,84.3712,2023,8.18,678,0,363,43,11,0,0.00,245,48,30,37,3,0.76,,
202300559,559,Bihar,Jamui,,Chandra Mandih,24.5792,86.4528,2023,8.14,1405,0,403,202,73,13,0.11,480,102,55,100,3,1.41,,
202300560,560,Bihar,Jamui,,Chakai,24.5497,86.4033,2023,7.91,545,0,165,71,14,26,0.00,185,60,9,38,1,0.35,,
202300561,561,Bihar,Jamui,,Aghara,24.97,86.1661,2023,7.69,517,0,244,21,22,3,0.00,190,40,22,31,2,0.40,,
202300562,562,Bihar,Jamui,,Jamui,24.9222,86.2239,2023,7.78,539,0,244,28,20,4,0.00,210,40,27,28,1,0.95,,
202300563,563,Bihar,Jamui,,Ambedkar Nagar,24.7944,86.3603,2023,7.78,562,0,183,71,15,21,0.00,210,38,28,33,1,0.30,,
202300564,564,Bihar,Jamui,,Chandwari,24.774,86.375,2023,7.85,1005,0,342,89,71,29,0.00,305,74,29,88,3,0.81,,
202300565,565,Bihar,Jamui,,Jhajha,24.7683,86.3847,2023,7.95,559,0,281,14,22,3,0.00,190,36,24,41,2,0.68,,
202300566,566,Bihar,Jamui,,Purna Khaira,24.8658,86.2028,2023,8.18,410,0,171,36,10,2,0.03,130,36,10,33,5,0.75,,
202300567,567,Bihar,Jamui,,Lalmatia,24.9836,86.31,2023,7.91,531,0,250,25,20,5,0.00,170,22,28,41,5,1.54,,
202300568,568,Bihar,Jamui,,Laxmipur,25.0044,86.3981,2023,7.83,765,0,262,92,33,7,0.06,205,30,32,76,9,0.19,,
202300569,569,Bihar,Jamui,,Batia,24.9222,86.2239,2023,8.03,511,0,250,25,11,0,0.03,190,48,17,31,2,0.71,,
202300570,570,Bihar,Jamui,,Sono,24.7371,86.3062,2023,8.05,774,0,342,53,30,3,0.00,225,54,22,71,5,0.71,,
202300571,571,Bihar,Jehanabad,,Gaurakshini,25.2073,84.9909,2023,7.95,1274,0,427,156,61,3,0.17,330,34,60,124,28,0.76,,
202300572,572,Bihar,Jehanabad,,Bolakhpur,25.0947,85.1401,2023,7.98,596,0,281,32,11,8,0.00,250,44,34,22,1,0.78,,
202300573,573,Bihar,Jehanabad,,Lakhwar,25.1367,85.0917,2023,7.53,738,0,317,57,13,15,0.27,290,60,34,35,4,0.66,,
202300574,574,Bihar,Jehanabad,,Hulasganj,25.0857,85.1477,2023,7.68,1046,0,348,131,27,31,0.00,335,72,38,79,10,0.74,,
202300575,575,Bihar,Jehanabad,,Jehanabad Hosp.,25.2104,84.9865,2023,7.88,1799,0,598,209,83,35,0.18,455,80,62,175,49,0.62,,
202300576,576,Bihar,Jehanabad,,Kako,25.2286,85.063,2023,7.82,3136,0,817,557,83,33,0.21,980,156,143,254,25,0.64,,
202300577,577,Bihar,Jehanabad,,Alubikha,25.0721,85.0335,2023,7.93,3228,0,1129,408,75,48,0.18,1030,186,137,216,89,0.66,,
202300578,578,Bihar,Jehanabad,,Mukhdumpur,25.062,84.9705,2023,8.01,872,0,397,46,37,8,0.22,250,32,41,81,6,0.75,,
202300579,579,Bihar,Kaimur,,Adhaura,24.6958,83.6139,2023,7.87,1514,0,427,234,42,41,0.00,605,152,55,55,23,0.78,,
202300580,580,Bihar,Kaimur,,Bare,25.1101,83.6193,2023,8.15,829,0,336,71,32,6,0.11,305,82,24,43,11,0.83,,
202300581,581,Bihar,Kaimur,,Bhabhua,25.0397,83.6056,2023,7.95,686,0,268,60,19,18,0.00,310,90,21,15,2,0.78,,
202300582,582,Bihar,Kaimur,,Saraiya,24.9778,83.591,2023,8.21,723,0,287,60,23,21,0.07,300,68,32,22,9,0.84,,
202300583,583,Bihar,Kaimur,,Tori Forest Chk. Post (Bhagwanpur),24.9478,83.6054,2023,8.03,1495,0,482,185,55,48,0.05,575,148,50,60,31,0.68,,
202300584,584,Bihar,Kaimur,,Khariava,25.0536,83.4629,2023,8.01,979,0,409,75,28,26,0.07,430,82,55,20,11,0.87,,
202300585,585,Bihar,Kaimur,,Chand,25.1142,83.3983,2023,8.10,1248,0,348,195,45,20,0.11,480,110,50,53,19,0.84,,
202300586,586,Bihar,Kaimur,,Karmnasa,25.242,83.441,2023,7.83,514,0,281,18,2,0,0.00,235,38,34,7,3,0.79,,
202300587,587,Bihar,Kaimur,,Keshopur,25.232,83.4402,2023,8.22,671,0,323,32,15,12,0.00,285,50,39,17,9,0.74,,
202300588,588,Bihar,Kaimur,,Mohania (N.W.),25.164,83.6216,2023,7.94,1243,0,403,153,54,25,0.00,470,120,41,57,19,0.68,,
202300589,589,Bihar,Kaimur,,Nuawan,25.3643,83.7385,2023,7.94,651,0,281,53,12,11,0.00,240,30,40,36,4,0.86,,
202300590,590,Bihar,Kaimur,,Bandipur,25.2996,83.6694,2023,7.88,769,0,384,32,19,7,0.00,290,62,33,39,3,0.83,,
202300591,591,Bihar,Kaimur,,Bevnaliya,25.27,83.5773,2023,8.24,441,0,220,18,7,11,0.00,195,40,23,10,1,0.85,,
202300592,592,Bihar,Kaimur,,Rampur,24.9447,83.7831,2023,7.98,945,0,378,89,21,10,0.00,370,108,24,41,13,0.85,,
202300593,593,Bihar,Katihar,,Balrampur,25.328,87.745,2023,7.91,486,0,177,53,19,2,0.00,220,40,29,10,3,0.25,,
202300594,594,Bihar,Katihar,,Barari 1,25.5047,87.3751,2023,7.84,830,0,189,142,37,28,0.18,315,62,39,44,3,0.23,,
202300595,595,Bihar,Katihar,,Kadwa,25.6628,87.7143,2023,7.85,889,0,311,107,21,23,0.25,315,64,38,50,14,0.18,,
202300596,596,Bihar,Katihar,,Sonali,25.6116,87.7163,2023,7.56,627,0,250,46,28,15,0.00,240,42,33,34,2,0.22,,
202300597,597,Bihar,Katihar,,Hafla 1,25.4911,87.589,2023,7.98,1072,0,329,146,35,27,0.22,415,82,51,53,5,0.24,,
202300598,598,Bihar,Katihar,,Katihar,25.561,87.5491,2023,7.71,825,0,323,75,30,16,0.00,255,38,39,69,4,0.11,,
202300599,599,Bihar,Katihar,,Khiria,25.6066,87.455,2023,7.58,790,0,214,114,21,49,0.21,310,48,46,36,3,0.10,,
202300600,600,Bihar,Katihar,,Korha,25.6236,87.3997,2023,7.93,721,0,250,89,22,7,0.00,280,46,40,37,1,0.00,,
202300601,601,Bihar,Katihar,,Kursela,25.449,87.2545,2023,7.54,964,0,384,85,28,23,0.18,340,60,46,58,11,0.34,,
202300602,602,Bihar,Katihar,,Manihari,25.3392,87.622,2023,7.65,2050,0,817,174,82,27,0.19,710,116,102,130,26,0.24,,
202300603,603,Bihar,Katihar,,Manihari (Kumari),25.4404,87.6127,2023,7.68,864,0,214,149,39,6,0.00,330,70,38,42,10,0.15,,
202300604,604,Bihar,Katihar,,Basantpur,25.465,87.601,2023,7.81,554,0,177,75,17,14,0.00,225,30,36,22,1,0.02,,
202300605,605,Bihar,Katihar,,Bastaul 1,25.5191,87.6727,2023,7.76,788,0,195,146,22,5,0.00,235,38,34,63,19,0.06,,
202300606,606,Bihar,Katihar,,Pranpur,25.4716,87.72,2023,7.92,632,0,244,53,24,21,0.00,255,52,30,23,7,0.30,,
202300607,607,Bihar,Katihar,,Dumaria,25.5174,87.2492,2023,7.65,755,0,128,170,22,16,0.00,335,62,44,17,3,0.00,,
202300608,608,Bihar,Khagaria,,Pirnagra,25.611,86.729,2023,7.89,2241,0,763,249,116,26,0.00,800,156,100,121,44,0.52,,
202300609,609,Bihar,Khagaria,,Basantpur,25.5009,86.5917,2023,7.65,723,0,415,7,10,2,0.00,325,70,36,13,5,0.38,,
202300610,610,Bihar,Khagaria,,Chautham,25.5419,86.6561,2023,7.89,582,0,275,28,25,1,0.00,260,30,45,13,1,0.73,,
202300611,611,Bihar,Khagaria,,Mahesh Khunt,25.4602,86.6377,2023,8.18,1035,0,366,96,70,8,0.00,415,106,36,37,16,0.48,,
202300612,612,Bihar,Khagaria,,Gandhinagar,25.446,86.665,2023,7.95,684,0,366,14,16,1,0.00,310,40,51,15,1,0.83,,
202300613,613,Bihar,Khagaria,,Jamalpur,25.4136,86.6528,2023,7.96,710,0,403,11,5,6,0.00,280,40,44,31,3,0.31,,
202300614,614,Bihar,Khagaria,,Lohia Chowk,25.4678,86.6357,2023,8.01,744,0,390,25,16,2,0.07,300,48,44,28,10,0.53,,
202300615,615,Bihar,Khagaria,,Durgapur  *,25.48,86.457,2023,7.77,1061,0,354,64,144,2,0.00,395,50,66,45,29,0.27,,
202300616,616,Bihar,Khagaria,,Gangaur,25.5078,86.345,2023,7.81,1452,0,397,224,37,19,0.00,495,86,68,71,28,0.89,,
202300617,617,Bihar,Khagaria,,Ismailpur,25.5089,86.3912,2023,7.88,658,0,366,11,11,2,0.14,245,30,41,36,2,0.63,,
202300618,618,Bihar,Khagaria,,Kasimpur,25.5056,86.4116,2023,8.11,685,0,372,18,8,2,0.00,275,62,29,25,7,0.37,,
202300619,619,Bihar,Khagaria,,Khagaria,25.5041,86.4774,2023,8.05,910,0,397,60,35,2,0.00,330,58,45,53,6,0.49,,
202300620,620,Bihar,Khagaria,,Ranko,25.519,86.498,2023,7.95,1290,0,500,89,89,26,0.13,430,52,73,92,12,0.49,,
202300621,621,Bihar,Khagaria,,Sonhauli   *,25.512,86.47,2023,7.78,756,0,317,39,45,17,0.00,315,70,34,23,11,0.35,,
202300622,622,Bihar,Khagaria,,Dewari,25.363,86.714,2023,7.78,1914,0,604,238,107,19,0.12,630,142,67,126,40,0.59,,
202300623,623,Bihar,Khagaria,,Mohaddipur,25.3907,86.7327,2023,7.65,926,0,366,50,74,18,0.00,370,64,51,36,12,0.73,,
202300624,624,Bihar,Khagaria,,Sabalpur,25.543,86.501,2023,7.63,761,0,427,14,5,4,0.00,295,38,49,37,3,0.51,,
202300625,625,Bihar,Kishanganj,,Bahadurganj B,26.2647,87.8285,2023,7.68,442,0,159,43,14,23,0.00,150,20,24,27,9,0.11,,
202300626,626,Bihar,Kishanganj,,Kishanganj,26.0966,87.9487,2023,7.91,763,0,317,50,29,29,0.00,215,42,27,71,9,0.31,,
202300627,627,Bihar,Kishanganj,,Kochadhamin,26.1611,87.7669,2023,7.85,395,0,153,46,7,2,0.11,130,22,18,25,9,0.18,,
202300628,628,Bihar,Kishanganj,,Teragachhi,26.3814,87.6866,2023,7.73,317,0,122,32,7,5,0.00,140,42,9,7,4,0.10,,
202300629,629,Bihar,Lakhisarai,,Fadarpur,25.2501,85.9567,2023,8.11,1770,0,567,192,118,35,0.16,570,130,60,139,9,0.53,,
202300630,630,Bihar,Lakhisarai,,East Girdha,25.0687,86.0653,2023,7.69,1247,0,512,85,72,9,0.05,310,74,30,127,27,1.06,,
202300631,631,Bihar,Lakhisarai,,Jagbada,25.1771,86.185,2023,7.95,1074,0,464,64,51,17,0.05,275,62,29,114,9,0.89,,
202300632,632,Bihar,Lakhisarai,,Nadiyama,25.1237,85.9879,2023,7.77,1725,0,470,277,83,2,0.19,510,72,80,156,8,0.70,,
202300633,633,Bihar,Lakhisarai,,Arma,25.2,86.2464,2023,7.81,3005,0,677,547,159,14,0.22,980,230,98,236,6,0.53,,
202300634,634,Bihar,Lakhisarai,,Kajra,25.16,86.23,2023,7.83,1608,0,586,149,84,33,0.09,465,100,52,151,6,0.87,,
202300635,635,Bihar,Lakhisarai,,Rishi Paharpur,25.2781,86.285,2023,7.84,858,0,342,53,46,33,0.00,315,74,32,50,3,0.41,,
202300636,636,Bihar,Lakhisarai,,Saidpur,25.1833,86.1533,2023,7.79,928,0,390,60,51,7,0.00,270,60,29,76,20,0.63,,
202300637,637,Bihar,Lakhisarai,,Surajgarha,25.1086,86.1308,2023,8.05,524,0,220,43,15,10,0.00,185,36,23,34,2,0.28,,
202300638,638,Bihar,Lakhisarai,,Kiul,25.1736,86.1042,2023,7.91,495,0,220,25,26,3,0.00,165,24,26,38,2,0.71,,
202300639,639,Bihar,Madhepura,,Gwalpara,25.7569,86.8956,2023,7.78,753,0,207,67,50,76,0.14,275,42,41,31,27,0.25,,
202300640,640,Bihar,Madhepura,,Kusthan,25.749,86.99,2023,7.81,961,0,342,89,65,12,0.00,390,78,47,35,11,0.31,,
202300641,641,Bihar,Madhepura,,Uda Kishanganj,25.681,86.949,2023,7.88,1102,0,390,103,70,18,0.00,355,68,45,78,19,0.36,,
202300642,642,Bihar,Madhepura,,Abhiya Tola,25.531,87.05,2023,7.95,440,0,207,18,23,2,0.00,205,44,23,3,8,0.49,,
202300643,643,Bihar,Madhepura,,Chausa1,25.5295,87.0312,2023,7.91,808,0,311,60,46,22,0.00,295,52,40,31,32,0.51,,
202300644,644,Bihar,Madhepura,,Ganeshpur,25.5906,86.9841,2023,7.85,555,0,238,25,26,20,0.00,220,50,23,20,10,0.47,,
202300645,645,Bihar,Madhepura,,Bhimpura,25.9103,86.8475,2023,7.94,788,0,360,39,40,0,0.00,335,80,33,22,12,0.42,,
202300646,646,Bihar,Madhepura,,Madhepura,25.9172,86.7893,2023,7.94,682,0,207,60,44,49,0.08,250,80,12,36,13,0.39,,
202300647,647,Bihar,Madhepura,,Surajganj,26.049,86.7348,2023,7.75,251,0,116,11,16,1,0.00,105,18,15,7,5,0.28,,
202300648,648,Bihar,Madhepura,,Gaushala Chowk,25.905,86.9987,2023,7.63,970,0,348,99,51,6,0.00,295,48,43,74,25,0.32,,
202300649,649,Bihar,Madhepura,,Hathkora Bazar,25.9076,86.892,2023,7.70,841,0,317,75,44,6,0.00,255,48,33,69,12,0.86,,
202300650,650,Bihar,Madhepura,,Murliganj,25.8916,86.9963,2023,8.03,1944,0,665,231,88,4,0.00,640,136,73,139,23,0.19,,
202300651,651,Bihar,Madhepura,,Rajui Rajni Goth,25.8247,86.9905,2023,8.12,801,0,262,67,66,28,0.00,335,68,40,25,12,0.25,,
202300652,652,Bihar,Madhepura,,Rampur,25.8933,86.9516,2023,7.99,664,0,299,32,40,1,0.00,280,54,35,16,13,0.54,,
202300653,653,Bihar,Madhepura,,Barhari,26.08,86.807,2023,7.83,711,0,348,25,35,2,0.18,295,66,32,11,29,0.31,,
202300654,654,Bihar,Madhepura,,Jiwachhapur,26.0272,86.7653,2023,7.68,502,0,183,36,36,18,0.00,175,34,22,28,11,0.55,,
202300655,655,Bihar,Madhepura,,Singheshwar,25.9842,86.7956,2023,7.67,499,0,207,18,30,22,0.11,185,30,27,25,9,0.59,,
202300656,656,Bihar,Madhubani,,Harri,26.3276,86.3028,2023,7.95,448,0,260,11,11,1,0.00,70,26,1,68,1,0.70,,
202300657,657,Bihar,Madhubani,,Babu Barhi,26.4547,86.2755,2023,8.10,759,0,455,25,9,0,0.00,210,28,34,95,1,0.89,,
202300658,658,Bihar,Madhubani,,Mansinghpatti,26.5613,86.0084,2023,8.02,415,0,246,11,8,0,0.00,150,46,9,29,1,0.72,,
202300659,659,Bihar,Madhubani,,Benipatti,26.4436,85.9074,2023,8.14,334,0,166,29,1,0,0.00,90,20,10,35,1,0.29,,
202300660,660,Bihar,Madhubani,,Dharjaki,26.4426,85.9493,2023,7.64,1433,0,203,304,76,62,0.00,230,44,29,167,36,0.24,,
202300661,661,Bihar,Madhubani,,Kapasia,26.421,86.0369,2023,7.63,391,0,234,2,1,0,0.00,95,30,5,39,1,0.81,,
202300662,662,Bihar,Madhubani,,Jagben,26.3518,85.8312,2023,8.14,463,0,258,7,1,0,0.00,85,14,12,57,1,0.83,,
202300663,663,Bihar,Madhubani,,Kishipatti,26.2872,86.4814,2023,7.73,867,0,264,92,35,11,0.00,225,28,38,90,45,0.86,,
202300664,664,Bihar,Madhubani,,Baurahar Chowk,26.6337,85.9859,2023,7.90,705,0,295,64,47,8,0.00,210,60,15,67,12,0.83,,
202300665,665,Bihar,Madhubani,,Harlakhi,26.6337,85.9859,2023,8.11,340,0,203,0,15,0,0.00,125,30,12,23,2,0.27,,
202300666,666,Bihar,Madhubani,,Jaynagar,26.59,86.1366,2023,7.93,413,0,215,28,2,1,0.00,125,30,12,37,1,0.33,,
202300667,667,Bihar,Madhubani,,Behat North,26.228,86.2654,2023,7.73,1525,0,492,202,72,11,0.00,480,90,62,117,43,0.84,,
202300668,668,Bihar,Madhubani,,Bideshwar Asthan,26.2301,86.2224,2023,7.80,689,0,264,75,30,1,0.00,175,30,24,70,11,0.27,,
202300669,669,Bihar,Madhubani,,Jhanjharpur,26.2668,86.2798,2023,8.11,480,0,252,20,12,0,0.00,90,14,12,68,2,0.75,,
202300670,670,Bihar,Madhubani,,Radh Village,26.5145,86.0325,2023,8.13,829,0,418,57,15,2,0.00,250,68,19,53,33,0.59,,
202300671,671,Bihar,Madhubani,,Karmauli,26.4496,86.1026,2023,6.94,780,0,258,82,56,0,0.00,105,12,18,65,88,0.15,,
202300672,672,Bihar,Madhubani,,Karmnali,26.4496,86.1037,2023,8.17,476,0,271,7,13,0,0.00,155,34,17,52,1,0.84,,
202300673,673,Bihar,Madhubani,,Khajauli,26.4817,86.16,2023,8.21,650,0,252,68,27,2,0.00,140,16,24,78,16,0.20,,
202300674,674,Bihar,Madhubani,,Narar,26.5216,86.0934,2023,8.37,1577,9,394,209,177,11,0.00,335,38,58,142,87,0.23,,
202300675,675,Bihar,Madhubani,,Thantola,26.5133,86.1141,2023,8.06,380,0,234,2,4,0,0.00,95,18,12,54,2,0.64,,
202300676,676,Bihar,Madhubani,,Bentadih,26.4817,86.16,2023,7.82,560,0,295,45,8,1,0.00,170,28,24,49,6,0.54,,
202300677,677,Bihar,Madhubani,,Lakhnaur,26.2015,86.3083,2023,8.10,1464,0,517,206,72,5,0.00,315,38,53,109,117,0.82,,
202300678,678,Bihar,Madhubani,,Ambedkar Nagar,26.5047,86.3982,2023,8.26,546,0,363,11,9,0,0.00,165,26,24,67,1,0.71,,
202300679,679,Bihar,Madhubani,,Laukaha,26.547,86.4665,2023,7.80,495,0,283,28,9,4,0.00,200,60,12,19,8,0.48,,
202300680,680,Bihar,Madhubani,,Bhagwanpur,26.1211,86.3509,2023,7.61,689,0,418,25,17,0,0.00,180,24,29,78,19,0.73,,
202300681,681,Bihar,Madhubani,,Bihari,26.5791,85.8319,2023,7.82,368,0,234,7,8,0,0.00,95,34,2,44,1,0.44,,
202300682,682,Bihar,Madhubani,,Madhubani,26.3509,86.0705,2023,8.36,1455,9,332,310,65,1,0.00,175,20,30,240,50,0.79,,
202300683,683,Bihar,Madhubani,,Baingra,26.4941,85.8321,2023,8.25,460,0,215,32,19,0,0.00,145,40,11,19,19,0.36,,
202300684,684,Bihar,Madhubani,,Bhawanipur,26.2457,86.1002,2023,7.93,455,0,271,13,2,0,0.00,110,20,15,54,5,0.71,,
202300685,685,Bihar,Madhubani,,Pandaul,26.2545,86.0743,2023,8.43,375,18,221,4,1,0,0.00,90,20,10,41,1,0.48,,
202300686,686,Bihar,Madhubani,,Shambhuar,26.2952,86.065,2023,7.95,1192,0,523,87,91,0,0.04,220,12,46,46,201,0.42,,
202300687,687,Bihar,Madhubani,,Kapileshwar,26.3507,86.0006,2023,7.85,1080,0,498,93,48,2,0.02,260,30,45,113,48,1.01,,
202300688,688,Bihar,Madhubani,,Phulparas (Shiv Mandir),26.3519,86.4905,2023,8.28,363,0,215,2,0,0,0.01,125,28,13,23,1,0.96,,
202300689,689,Bihar,Madhubani,,Phulparas 1,26.3532,86.4906,2023,7.93,370,0,234,4,9,0,0.00,140,40,10,26,2,0.69,,
202300690,690,Bihar,Madhubani,,Siswar,26.426,86.4559,2023,8.24,482,0,228,45,1,0,0.11,150,36,15,52,2,0.38,,
202300691,691,Bihar,Madhubani,,Pariharpur,26.4029,86.1199,2023,8.06,487,0,308,11,13,0,0.03,125,30,12,51,1,0.81,,
202300692,692,Bihar,Munger,,Bariarpur,25.2887,86.5751,2023,7.73,1163,0,342,149,83,7,0.17,415,84,50,74,2,0.43,,
202300693,693,Bihar,Munger,,Mahadeva,25.2887,86.5751,2023,7.79,513,0,183,64,16,0,0.00,155,30,19,44,2,0.38,,
202300694,694,Bihar,Munger,,Jamalpur,25.3208,86.4917,2023,7.83,696,0,201,99,35,3,0.00,195,40,23,70,1,0.45,,
202300695,695,Bihar,Munger,,Singhiya Chowk,25.3023,86.4032,2023,7.85,1339,0,397,163,97,6,0.06,440,100,46,104,3,0.93,,
202300696,696,Bihar,Munger,,Gangta Morh,25.0466,86.5036,2023,8.09,612,0,244,57,22,0,0.00,155,30,19,69,1,0.58,,
202300697,697,Bihar,Munger,,Gobadda,25.1868,86.5738,2023,7.95,1138,0,366,170,22,2,0.11,380,68,51,87,1,0.79,,
202300698,698,Bihar,Munger,,Rampur,25.0338,86.638,2023,7.98,434,0,122,71,11,3,0.00,160,36,17,27,1,0.07,,
202300699,699,Bihar,Munger,,Tarapur,25.0904,86.6626,2023,8.01,1022,0,299,142,43,22,0.09,325,72,35,85,1,0.45,,
202300700,700,Bihar,Muzzafarpur,,Aurai,26.3175,85.5651,2023,8.21,727,0,311,57,17,14,0.00,250,76,15,47,9,0.59,,
202300701,701,Bihar,Muzzafarpur,,Rajkhand,26.3431,85.5592,2023,7.92,1609,0,433,249,89,9,0.00,400,82,47,171,24,0.30,,
202300702,702,Bihar,Muzzafarpur,,Bandra,26.0677,85.6198,2023,7.84,849,0,360,53,52,2,0.00,345,134,2,32,6,0.31,,
202300703,703,Bihar,Muzzafarpur,,Muhammadpur Balmi,26.2796,85.1487,2023,7.81,693,0,366,11,32,0,0.00,275,54,34,30,4,0.46,,
202300704,704,Bihar,Muzzafarpur,,Bochaha (New Well),26.1625,85.469,2023,7.96,863,0,366,53,45,7,0.00,305,74,29,46,20,0.45,,
202300705,705,Bihar,Muzzafarpur,,"SarfuddinPur,(Bawanbigha)",26.1173,85.53,2023,8.18,767,0,354,39,35,5,0.00,290,86,18,39,6,0.23,,
202300706,706,Bihar,Muzzafarpur,,Shukrahat (Maidapur),26.1125,85.5521,2023,8.09,1128,0,458,71,79,9,0.18,450,124,34,44,13,0.39,,
202300707,707,Bihar,Muzzafarpur,,Dholi (Tola Jahangirpur),25.9979,85.5888,2023,7.83,1629,0,616,117,98,48,0.00,430,76,58,164,23,0.53,,
202300708,708,Bihar,Muzzafarpur,,Ramnagar,26.1781,85.5635,2023,8.19,603,0,336,11,8,7,0.00,225,62,17,32,4,0.00,,
202300709,709,Bihar,Muzzafarpur,,Tiwari Tola,26.2279,85.3123,2023,7.94,1098,0,366,117,74,4,0.00,385,60,57,63,22,0.41,,
202300710,710,Bihar,Muzzafarpur,,Katra1,26.2205,85.6389,2023,7.07,459,0,226,18,15,2,0.00,120,28,12,50,1,0.53,,
202300711,711,Bihar,Muzzafarpur,,Mahant Manihari,26.0358,85.4443,2023,8.11,1202,0,397,117,108,1,0.00,295,74,27,137,3,0.45,,
202300712,712,Bihar,Muzzafarpur,,Sakrichatti,26.0504,85.3546,2023,7.89,1065,0,384,85,61,44,0.00,335,100,21,82,13,0.26,,
202300713,713,Bihar,Muzzafarpur,,Turki,26.0291,85.3497,2023,8.03,1951,0,427,323,134,40,0.21,540,100,70,185,25,0.41,,
202300714,714,Bihar,Muzzafarpur,,Gargalia (Minapur),26.2437,85.3537,2023,8.03,701,0,378,14,18,0,0.00,310,102,13,16,7,0.32,,
202300715,715,Bihar,Muzzafarpur,,Digra (Dighra Patti),26.0719,85.4226,2023,7.91,1156,0,390,114,88,3,0.00,285,72,26,124,20,0.75,,
202300716,716,Bihar,Muzzafarpur,,Patahi,26.1186,85.3415,2023,8.15,819,0,464,14,10,2,0.00,290,52,39,52,4,0.48,,
202300717,717,Bihar,Muzzafarpur,,Japaha,26.19,85.3989,2023,7.85,1691,0,671,128,90,28,0.11,430,92,49,178,22,0.26,,
202300718,718,Bihar,Muzzafarpur,,Baghwanpur Chowk,26.1625,85.469,2023,8.03,852,0,458,18,17,7,0.00,250,56,27,80,5,0.69,,
202300719,719,Bihar,Muzzafarpur,,Bajidpur,26.1337,85.0957,2023,8.07,968,0,458,21,78,0,0.00,365,80,40,51,5,0.36,,
202300720,720,Bihar,Muzzafarpur,,Paroo,26.09,85.0664,2023,7.95,2092,0,555,266,201,2,0.24,595,168,43,199,16,0.68,,
202300721,721,Bihar,Muzzafarpur,,(Mehadiganj) Dewaria,26.1738,85.0166,2023,7.96,1135,0,360,128,89,1,0.00,505,134,41,23,6,0.51,,
202300722,722,Bihar,Muzzafarpur,,Jaffarpur (Bichalatola),26.0863,85.0206,2023,8.01,747,0,348,25,52,0,0.00,300,70,30,31,4,0.49,,
202300723,723,Bihar,Muzzafarpur,,Daha Chapra,26.2223,84.978,2023,7.84,664,0,305,14,59,0,0.00,275,62,29,24,2,0.58,,
202300724,724,Bihar,Muzzafarpur,,Parwal Patti,26.2964,84.9428,2023,8.12,825,0,433,14,34,1,0.00,340,78,35,32,4,0.36,,
202300725,725,Bihar,Muzzafarpur,,Rajwara,26.2585,84.9395,2023,7.89,2494,0,647,359,195,2,0.28,740,84,129,210,39,0.89,,
202300726,726,Bihar,Muzzafarpur,,Sahebganj,26.3002,84.9329,2023,8.18,805,0,403,18,45,0,0.00,305,60,38,41,4,0.58,,
202300727,727,Bihar,Muzzafarpur,,Seho(Siho),26.0065,85.5065,2023,8.05,737,0,348,25,46,3,0.00,265,58,29,45,2,0.58,,
202300728,728,Bihar,Muzzafarpur,,Mahmudpur Baya,26.0493,85.1507,2023,7.79,1258,0,397,121,124,4,0.09,475,94,58,69,6,0.00,,
202300729,729,Bihar,Nalanda,,Asthwan,25.2169,85.6253,2023,7.89,1059,0,488,75,18,1,0.00,320,92,22,95,2,0.01,,
202300730,730,Bihar,Nalanda,,Jangipur,25.1956,85.6911,2023,7.85,759,0,336,50,15,15,0.00,285,96,24,39,2,1.27,,
202300731,731,Bihar,Nalanda,,Sare,25.2094,85.6844,2023,7.26,503,0,201,32,35,8,0.16,190,56,12,28,2,1.36,,
202300732,732,Bihar,Nalanda,,Bhui,25.1058,85.4183,2023,7.93,1930,0,622,156,217,2,0.11,145,42,9,376,0,1.10,,
202300733,733,Bihar,Nalanda,,Bhind,25.3055,85.6913,2023,7.81,719,0,354,25,18,7,0.00,175,66,17,83,1,1.16,,
202300734,734,Bihar,Nalanda,,B Sharif Rly Stn,25.2017,85.5389,2023,7.29,2960,0,610,533,200,10,0.50,405,92,24,491,2,1.09,,
202300735,735,Bihar,Nalanda,,Biharsharif,25.2083,85.5125,2023,7.90,1387,0,378,174,101,24,0.00,470,44,32,98,1,1.14,,
202300736,736,Bihar,Nalanda,,Maghra,25.1931,85.4939,2023,7.81,1230,0,470,128,23,23,0.00,155,52,12,208,1,1.24,,
202300737,737,Bihar,Nalanda,,Muraura,25.2031,85.5522,2023,7.92,1412,0,665,99,10,10,0.00,390,110,28,116,50,1.18,,
202300738,738,Bihar,Nalanda,,Ranabigha,25.1733,85.5092,2023,7.84,1620,0,445,181,156,23,0.00,395,48,67,188,1,1.26,,
202300739,739,Bihar,Nalanda,,Sohdh,25.2275,85.5133,2023,7.81,1273,0,531,89,56,12,0.32,420,110,28,95,2,1.45,,
202300740,740,Bihar,Nalanda,,Jakhaur,25.2714,85.6881,2023,7.83,870,0,384,78,3,3,0.16,340,110,24,41,2,1.22,,
202300741,741,Bihar,Nalanda,,Chandi,25.3183,85.4856,2023,7.71,1047,0,488,50,45,10,0.00,330,136,32,88,3,1.16,,
202300742,742,Bihar,Nalanda,,Ekangarsarai,25.225,85.2208,2023,7.85,2467,0,1141,135,87,8,0.00,230,52,24,256,344,1.13,,
202300743,743,Bihar,Nalanda,,Giriak,25.025,85.5292,2023,7.83,1051,0,439,89,21,24,0.00,400,104,34,57,4,1.11,,
202300744,744,Bihar,Nalanda,,Pawapuri,25.1,85.55,2023,7.89,545,0,275,21,3,3,0.00,195,30,16,33,1,1.65,,
202300745,745,Bihar,Nalanda,,Harnaut1,25.3753,85.5286,2023,7.95,1790,0,543,188,160,24,0.23,485,144,30,178,18,0.80,,
202300746,746,Bihar,Nalanda,,Hilsa,25.3042,85.2875,2023,7.89,688,0,323,32,19,1,0.00,230,82,23,45,2,1.46,,
202300747,747,Bihar,Nalanda,,Nischalganj,25.2458,85.325,2023,7.71,1069,0,580,36,3,3,0.00,170,174,11,170,0,1.18,,
202300748,748,Bihar,Nalanda,,Islampur,25.1356,85.2139,2023,7.98,1760,0,622,227,23,23,0.00,400,54,30,207,23,0.80,,
202300749,749,Bihar,Nalanda,,Sherpur,25.1536,85.2519,2023,7.81,580,0,293,18,15,5,0.00,160,84,19,57,3,1.27,,
202300750,750,Bihar,Nalanda,,Karaiparsurai,25.3686,85.2672,2023,7.72,1290,0,628,85,3,3,0.00,415,74,29,79,43,0.96,,
202300751,751,Bihar,Nalanda,,Nagarnausa,25.3947,85.3461,2023,7.95,1290,0,512,156,0,0,0.00,430,70,62,96,2,1.25,,
202300752,752,Bihar,Nalanda,,Ankuri Bazar,25.045,85.2656,2023,7.12,746,0,342,36,20,0,0.13,255,70,19,48,1,1.23,,
202300753,753,Bihar,Nalanda,,Daudpur,25.2157,85.4758,2023,7.92,1188,0,500,64,39,24,0.21,240,64,12,68,137,1.29,,
202300754,754,Bihar,Nalanda,,Heganpura,25.2289,85.5025,2023,7.96,1130,0,397,117,65,1,0.00,315,144,27,113,2,1.03,,
202300755,755,Bihar,Nalanda,,Kundalpur,25.1561,85.4469,2023,7.76,1000,0,555,43,1,1,0.00,195,118,16,145,5,1.39,,
202300756,756,Bihar,Nalanda,,Paparnhosa,25.1772,85.4331,2023,7.91,1093,0,482,71,20,20,0.00,145,50,4,117,108,1.47,,
202300757,757,Bihar,Nalanda,,Parwalpur,25.2081,85.3675,2023,7.87,1305,0,433,178,8,8,0.00,215,52,43,188,1,1.45,,
202300758,758,Bihar,Nalanda,,Parwalpur 1,25.2014,85.3522,2023,7.82,1635,0,592,153,66,35,0.31,175,16,24,252,64,1.32,,
202300759,759,Bihar,Nalanda,,Vena,25.3244,85.5342,2023,7.92,695,0,336,36,16,0,0.00,270,122,18,33,2,1.27,,
202300760,760,Bihar,Nalanda,,Pilkhi,25.0222,85.3875,2023,7.81,436,0,226,14,5,5,0.00,165,52,21,22,1,1.72,,
202300761,761,Bihar,Nalanda,,Rajgir,25.0208,85.4042,2023,7.92,830,0,323,71,24,20,0.00,280,32,39,60,3,2.20,,
202300762,762,Bihar,Nalanda,,Doiya,25.2317,85.8236,2023,7.85,1090,0,537,46,17,20,0.00,225,80,16,58,152,1.25,,
202300763,763,Bihar,Nalanda,,Sarmera,25.2561,85.7997,2023,7.92,1500,0,390,188,129,22,0.00,455,84,60,127,8,1.17,,
202300764,764,Bihar,Nalanda,,Nalanda,25.1356,85.4456,2023,7.85,1221,0,500,114,21,21,0.19,220,30,35,177,10,1.07,,
202300765,765,Bihar,Nalanda,,Nirpur,25.1372,85.4219,2023,7.82,2730,0,891,412,23,23,0.00,725,30,70,290,1,1.34,,
202300766,766,Bihar,Nalanda,,Silao,25.075,85.4511,2023,7.85,2336,0,634,309,144,5,0.00,575,32,81,241,13,1.30,,
202300767,767,Bihar,Nalanda,,Sithaura,25.0389,85.5122,2023,7.73,2685,0,878,334,122,16,0.00,390,96,28,432,7,1.43,,
202300768,768,Bihar,Nalanda,,Asta Kharjuma,25.2903,85.3906,2023,7.34,715,0,336,39,16,11,0.00,290,70,28,30,3,1.03,,
202300769,769,Bihar,Nalanda,,Bhathar,25.2975,85.3869,2023,7.35,1340,0,671,64,21,2,0.00,275,122,27,113,113,1.14,,
202300770,770,Bihar,Nawada,,Basantpur,24.8125,85.5667,2023,7.95,1164,0,427,128,29,2,0.31,365,98,29,93,1,1.91,,
202300771,771,Bihar,Nawada,,Bishunpur,24.7645,85.6804,2023,7.67,745,0,214,103,40,8,0.13,250,60,24,55,3,0.68,,
202300772,772,Bihar,Nawada,,Hisua,24.8375,85.414,2023,7.85,531,0,183,71,10,5,0.00,170,24,27,43,1,0.63,,
202300773,773,Bihar,Nawada,,Tungi,24.8105,85.305,2023,8.03,773,0,214,107,45,18,0.00,280,60,32,47,2,0.88,,
202300774,774,Bihar,Nawada,,Chandinama,24.7508,85.6686,2023,8.02,887,0,397,60,19,6,0.12,250,72,17,84,7,2.40,,
202300775,775,Bihar,Nawada,,Rupau,24.8604,85.7525,2023,7.79,1948,0,610,284,55,20,0.00,675,154,70,136,1,0.69,,
202300776,776,Bihar,Nawada,,Meskaur,24.738,85.355,2023,8.01,1994,0,573,284,98,24,0.00,575,138,56,188,11,0.94,,
202300777,777,Bihar,Nawada,,Khanwa,24.739,85.4329,2023,7.94,1239,0,427,142,49,23,0.00,420,100,41,72,32,0.81,,
202300778,778,Bihar,Nawada,,Pakribrawan Pond,24.9553,85.7408,2023,8.02,2307,0,732,330,70,21,0.15,600,164,46,259,1,1.90,,
202300779,779,Bihar,Nawada,,Roh,24.9011,85.66,2023,7.85,1458,0,427,206,63,28,0.14,545,122,58,82,2,0.88,,
202300780,780,Bihar,Nawada,,Dopata,24.7118,85.5147,2023,7.79,458,0,134,75,7,5,0.00,125,38,7,47,1,0.78,,
202300781,781,Bihar,Nawada,,Garhpar,24.8292,85.6708,2023,8.15,1078,0,354,121,33,22,0.15,415,112,33,46,5,2.47,,
202300782,782,Bihar,Nawada,,Gonama,24.875,85.6861,2023,8.00,896,0,397,60,16,17,0.00,355,90,32,40,1,1.94,,
202300783,783,Bihar,Nawada,,Nawabganj,24.6534,85.4106,2023,7.96,795,0,244,114,33,3,0.00,170,32,22,104,0,1.12,,
202300784,784,Bihar,Nawada,,Shahpur Morh,24.6503,85.4183,2023,8.05,1700,0,689,142,97,2,0.00,530,174,23,145,22,1.60,,
202300785,785,Bihar,Nawada,,Warsaliganj,25.0247,85.5736,2023,7.91,960,0,348,85,42,15,0.00,320,90,23,64,3,2.25,,
202300786,786,Bihar,Patna,,Bhaktiarpur,25.4625,85.5292,2023,8.05,902,0,384,53,55,5,0.00,250,62,23,87,9,0.39,,
202300787,787,Bihar,Patna,,Amraha,25.5289,84.8621,2023,7.95,465,0,220,21,20,1,0.00,205,40,26,13,1,0.23,,
202300788,788,Bihar,Patna,,Baliapakar,25.3396,84.8249,2023,7.84,1181,0,427,96,77,31,0.11,330,46,52,106,22,0.83,,
202300789,789,Bihar,Patna,,Bishambharpur,25.5794,84.8898,2023,7.94,886,0,366,67,29,22,0.00,320,62,40,53,5,0.66,,
202300790,790,Bihar,Patna,,Raghopur,25.5483,84.864,2023,7.78,403,0,207,11,15,0,0.12,180,30,26,9,1,0.39,,
202300791,791,Bihar,Patna,,Andhra Chowki,25.4687,84.8985,2023,7.68,411,0,171,32,13,8,0.11,155,26,22,18,7,0.38,,
202300792,792,Bihar,Patna,,Dina Bigha,25.465,84.8619,2023,7.93,587,0,305,18,15,4,0.23,225,42,29,26,9,0.40,,
202300793,793,Bihar,Patna,,Moriyawa,25.4971,84.866,2023,7.84,912,0,226,174,26,0,0.00,380,70,50,31,5,0.52,,
202300794,794,Bihar,Patna,,Noniatola,25.4418,84.8652,2023,8.11,1146,0,366,128,60,34,0.00,350,64,46,101,4,0.36,,
202300795,795,Bihar,Patna,,Darbeshpur,25.6524,84.9393,2023,7.95,1239,0,427,107,88,35,0.12,375,86,39,110,3,0.52,,
202300796,796,Bihar,Patna,,Goptal,25.6406,85.058,2023,7.98,1165,0,537,78,29,3,0.00,385,78,46,78,21,0.65,,
202300797,797,Bihar,Patna,,Khaspur,25.6506,84.9891,2023,7.76,505,0,268,11,16,2,0.00,180,22,30,31,1,0.52,,
202300798,798,Bihar,Patna,,Daniyawan,25.4661,84.8983,2023,7.89,652,0,305,43,14,2,0.32,230,74,11,43,7,0.93,,
202300799,799,Bihar,Patna,,Majhauli,25.3595,85.1212,2023,7.94,827,0,342,60,23,31,0.00,300,66,33,50,2,0.39,,
202300800,800,Bihar,Patna,,Nima,25.4071,85.0724,2023,7.95,456,0,189,32,26,0,0.00,185,30,27,18,2,0.73,,
202300801,801,Bihar,Patna,,Ainkhawn,25.3922,84.8687,2023,8.01,476,0,183,32,16,34,0.31,175,40,18,27,2,0.54,,
202300802,802,Bihar,Patna,,Fatuha,25.6347,85.0125,2023,7.72,940,0,384,64,30,19,0.12,315,82,27,65,2,0.85,,
202300803,803,Bihar,Patna,,Gyaspur(Purvatola),25.6271,84.8897,2023,8.18,1550,0,531,153,89,40,0.25,565,102,75,84,19,0.48,,
202300804,804,Bihar,Patna,,Lalbeghum,25.655,84.9685,2023,7.65,465,0,232,14,15,4,0.13,160,42,13,33,1,0.50,,
202300805,805,Bihar,Patna,,Maner,25.6481,84.886,2023,7.91,1243,0,476,121,57,4,0.00,365,58,53,111,11,0.59,,
202300806,806,Bihar,Patna,,Maner New,25.6478,84.9097,2023,7.84,1034,0,445,57,64,7,0.00,380,70,50,60,4,0.69,,
202300807,807,Bihar,Patna,,Nagwa,25.6233,84.9145,2023,7.94,785,0,287,82,26,19,0.15,295,62,34,43,2,0.35,,
202300808,808,Bihar,Patna,,Manichak,25.3595,85.031,2023,7.73,860,0,354,53,41,27,0.00,300,50,43,57,3,0.62,,
202300809,809,Bihar,Patna,,Maranchi,25.3539,85.9911,2023,8.15,821,0,311,67,57,1,0.00,310,102,13,41,8,0.51,,
202300810,810,Bihar,Patna,,Mokama,25.5042,85.2958,2023,7.85,1802,0,531,217,114,50,0.15,580,84,90,145,6,0.73,,
202300811,811,Bihar,Patna,,Faridpur New,25.5487,84.9853,2023,7.94,495,0,244,18,21,0,0.00,195,48,18,21,3,0.54,,
202300812,812,Bihar,Patna,,Snehitota,25.5052,84.9613,2023,7.81,1515,0,525,188,45,15,0.00,450,122,35,131,20,0.31,,
202300813,813,Bihar,Patna,,Bharatpura,25.3508,84.8591,2023,8.13,1438,0,537,142,69,4,0.00,430,106,40,117,29,0.88,,
202300814,814,Bihar,Patna,,Patna City,25.5984,85.196,2023,7.71,1412,0,500,146,78,7,0.00,445,80,60,118,6,0.66,,
202300815,815,Bihar,Patna,,Khazpura,25.6055,85.0782,2023,7.87,1065,0,439,78,44,20,0.25,330,64,41,78,25,0.82,,
202300816,816,Bihar,Patna,,Patnacity,25.5964,85.1322,2023,8.01,1489,0,580,121,89,1,0.00,430,112,36,105,69,1.44,,
202300817,817,Bihar,Patna,,"Dheeraj Chak, Anishabad",25.5876,85.0991,2023,7.83,938,0,390,64,41,21,0.00,335,58,46,57,6,0.69,,
202300818,818,Bihar,Patna,,Etwarpur,25.5748,85.1262,2023,8.18,1738,0,598,178,94,34,0.00,580,118,69,118,27,0.60,,
202300819,819,Bihar,Patna,,Hulas Chak,25.5395,85.0269,2023,8.03,701,0,207,85,31,32,0.19,295,62,34,25,2,0.24,,
202300820,820,Bihar,Patna,,Deokoli,25.4264,85.1679,2023,7.81,555,0,262,25,23,2,0.00,210,24,36,31,1,0.33,,
202300821,821,Bihar,Patna,,Sampatchak,25.5426,85.1741,2023,7.63,559,0,244,36,26,0,0.00,195,36,26,39,2,0.58,,
202300822,822,Bihar,Patna,,Agwanpur,25.4514,85.7316,2023,7.65,508,0,183,60,16,1,0.00,165,22,27,41,1,0.44,,
202300823,823,Bihar,Patna,,Barh,25.4761,85.7083,2023,7.83,818,0,287,107,23,1,0.00,285,54,36,54,4,0.41,,
202300824,824,Bihar,Patna,,Rajpura,25.4588,85.6426,2023,7.74,581,0,153,99,24,1,0.11,250,62,23,17,0,0.22,,
202300825,825,Bihar,Patna,,Sahri,25.4747,85.7285,2023,7.93,1909,0,586,284,48,25,0.24,510,82,74,181,40,0.71,,
202300826,826,Bihar,Purnea,,Amour,25.9703,87.7198,2023,7.83,480,0,189,46,13,2,0.00,165,24,26,30,9,0.82,,
202300827,827,Bihar,Purnea,,Chadia,25.8635,87.7841,2023,7.95,335,0,92,50,16,4,0.00,60,10,9,49,1,0.14,,
202300828,828,Bihar,Purnea,,Banmankhi,25.8842,87.192,2023,7.58,988,0,348,114,36,15,0.11,360,82,38,47,24,0.33,,
202300829,829,Bihar,Purnea,,Budhia Gola,25.8958,87.2837,2023,7.88,750,0,207,103,37,26,0.14,285,60,33,33,14,0.92,,
202300830,830,Bihar,Purnea,,Mangujan,25.8388,87.1752,2023,7.75,859,0,281,96,41,28,0.21,330,70,38,44,1,0.15,,
202300831,831,Bihar,Purnea,,Amri Kukraun East,25.7717,87.1899,2023,7.74,536,0,256,28,11,5,0.00,190,30,28,33,6,0.19,,
202300832,832,Bihar,Purnea,,Amri Kukraun West,25.7633,87.1851,2023,7.91,556,0,226,50,18,1,0.00,270,60,29,4,2,0.65,,
202300833,833,Bihar,Purnea,,Dhamdaha,25.7379,87.1789,2023,7.93,864,0,311,96,19,29,0.23,330,60,44,42,7,0.02,,
202300834,834,Bihar,Purnea,,Jalagrah,25.9546,87.5304,2023,8.11,471,0,140,64,26,4,0.00,220,32,34,5,2,0.23,,
202300835,835,Bihar,Purnea,,Kajha,25.7765,87.3524,2023,7.85,795,0,220,114,31,31,0.15,315,62,39,36,2,0.79,,
202300836,836,Bihar,Purnea,,Purnea,25.7821,87.4832,2023,7.89,453,0,128,60,20,22,0.00,220,40,29,2,0,0.36,,
202300837,837,Bihar,Purnea,,Ranipatra,25.732,87.5113,2023,7.93,107,0,18,18,10,3,0.00,50,8,7,0,0,0.18,,
202300838,838,Bihar,Purnea,,Dargaha,25.5957,87.1446,2023,8.01,274,0,73,36,11,16,0.00,135,24,18,2,0,0.13,,
202300839,839,Bihar,Purnea,,Khata Hat,25.8871,87.4262,2023,7.65,332,0,116,36,12,10,0.00,125,30,12,17,5,0.30,,
202300840,840,Bihar,Purnea,,Barsoni,25.8035,87.5838,2023,7.69,675,0,165,110,45,2,0.00,230,50,26,48,2,0.40,,
202300841,841,Bihar,Rohtas,,Bagen,24.966,84.1516,2023,8.09,992,0,336,114,38,28,0.00,355,78,39,46,30,0.38,,
202300842,842,Bihar,Rohtas,,Neema,25.0379,84.21,2023,7.79,320,0,134,18,10,18,0.00,100,30,6,21,10,0.39,,
202300843,843,Bihar,Rohtas,,Bikramganj,25.2253,84.2628,2023,8.06,725,0,262,71,14,42,0.00,280,76,22,36,1,0.41,,
202300844,844,Bihar,Rohtas,,Chenari,24.9163,83.8015,2023,7.98,511,0,256,18,8,16,0.00,200,64,10,25,0,0.77,,
202300845,845,Bihar,Rohtas,,Dawath( Panchmandir Tola),25.2928,84.2225,2023,8.19,548,0,275,14,9,23,0.00,235,64,18,17,0,0.57,,
202300846,846,Bihar,Rohtas,,Maliabagh,25.3399,84.207,2023,8.11,521,0,287,14,5,3,0.00,190,48,17,33,1,0.62,,
202300847,847,Bihar,Rohtas,,Anikut (Anikat),24.8915,84.1777,2023,7.88,615,0,268,39,17,19,0.09,245,64,21,27,2,0.44,,
202300848,848,Bihar,Rohtas,,Dinara,25.2485,84.0604,2023,7.88,871,0,305,110,13,21,0.00,310,76,29,56,2,0.73,,
202300849,849,Bihar,Rohtas,,Kochas,25.2352,83.9209,2023,7.85,948,0,384,99,18,2,0.00,255,52,30,100,1,0.55,,
202300850,850,Bihar,Rohtas,,Ambwalia (Amolia),25.1221,83.9306,2023,7.96,515,0,256,18,9,15,0.00,155,48,9,46,1,0.79,,
202300851,851,Bihar,Rohtas,,Bahaura,25.104,84.309,2023,7.88,336,0,153,18,15,3,0.00,140,46,6,12,0,0.59,,
202300852,852,Bihar,Rohtas,,Belthari,25.1921,83.9176,2023,7.95,641,0,354,14,6,5,0.00,245,58,24,34,1,0.53,,
202300853,853,Bihar,Rohtas,,Sinsiyau,25.1397,83.9238,2023,8.17,759,0,348,50,9,18,0.00,190,40,22,86,1,0.87,,
202300854,854,Bihar,Rohtas,,Rajandih,25.2259,83.8869,2023,7.70,795,0,372,53,12,1,0.00,175,34,22,104,0,0.76,,
202300855,855,Bihar,Rohtas,,Jahanabad (Kudra),25.0464,83.7933,2023,8.22,902,0,171,181,38,17,0.00,210,52,19,111,1,0.31,,
202300856,856,Bihar,Rohtas,,Nasriganj,25.0542,84.3294,2023,7.81,457,0,244,11,6,5,0.00,215,58,17,7,0,0.90,,
202300857,857,Bihar,Rohtas,,Auraiya,24.5673,83.8851,2023,7.80,541,0,275,21,7,10,0.00,230,68,15,18,0,0.68,,
202300858,858,Bihar,Rohtas,,Nokha,25.1028,84.1234,2023,7.98,488,0,238,25,11,3,0.00,175,56,9,28,3,0.84,,
202300859,859,Bihar,Rohtas,,Rajpur,25.0768,84.2035,2023,7.91,505,0,250,18,8,18,0.00,160,28,22,33,14,0.86,,
202300860,860,Bihar,Rohtas,,Akbarpur,24.6339,83.9597,2023,8.18,470,0,244,14,8,6,0.00,225,70,12,3,2,0.84,,
202300861,861,Bihar,Rohtas,,Karma,25.0838,84.3234,2023,7.95,500,0,226,25,11,23,0.00,215,60,16,15,0,0.74,,
202300862,862,Bihar,Rohtas,,Sanjhauli Bazar,25.1438,84.1849,2023,8.18,425,0,171,32,12,14,0.07,140,42,9,31,1,0.52,,
202300863,863,Bihar,Rohtas,,Amawan Gate,24.9624,83.9386,2023,8.13,1475,0,580,163,18,10,0.21,215,22,39,241,1,1.35,,
202300864,864,Bihar,Rohtas,,Karbindia,24.9534,84.0842,2023,8.05,750,0,256,71,44,20,0.00,250,58,26,59,0,0.76,,
202300865,865,Bihar,Rohtas,,Sasaram,24.9524,84.0147,2023,8.05,1052,0,451,85,13,25,0.11,270,66,26,116,4,0.55,,
202300866,866,Bihar,Rohtas,,Tilothu,24.8151,84.0958,2023,8.13,503,0,268,14,10,3,0.00,225,70,12,12,0,0.52,,
202300867,867,Bihar,Saharsa,,Basudeva,25.8969,86.5319,2023,8.01,510,0,98,75,56,14,0.00,145,50,5,41,15,1.02,,
202300868,868,Bihar,Saharsa,,Chainpur,25.8321,86.5221,2023,7.94,531,0,214,39,29,4,0.00,200,36,27,18,21,0.00,,
202300869,869,Bihar,Saharsa,,Kharkutti,25.8693,86.5542,2023,7.68,932,0,299,78,56,62,0.00,320,62,40,52,25,1.25,,
202300870,870,Bihar,Saharsa,,Tulsiyahi,25.9193,86.5426,2023,8.03,1140,0,421,110,64,5,0.00,370,82,40,78,23,0.59,,
